% program   : RTKPOST demo5 b34k
% inp file  : C:\Users\Taro\Dropbox\github\gtsam_gnss\examples\data\rover_1Hz.obs
% inp file  : C:\Users\Taro\Dropbox\github\gtsam_gnss\examples\data\base.nav
% obs start : 2024/07/20 09:52:30.0 GPST (week2323 553950.0s)
% obs end   : 2024/07/20 10:11:30.0 GPST (week2323 555090.0s)
% pos mode  : Single
% elev mask : 15.0 deg
% ionos opt : Broadcast
% tropo opt : Saastamoinen
% ephemeris : Broadcast
% navi sys  : GPS GLONASS Galileo QZSS BDS
%
% (lat/lon/height=WGS84/ellipsoidal,Q=1:fix,2:float,3:sbas,4:dgps,5:single,6:ppp,ns=# of satellites)
%  GPST                  latitude(deg) longitude(deg)  height(m)   Q  ns   sdn(m)   sde(m)   sdu(m)  sdne(m)  sdeu(m)  sdun(m) age(s)  ratio
2024/07/20 09:52:30.000   35.165318215  136.881460576    40.2116   5  30   2.4722   2.0416   5.7511   1.1704  -1.5828  -1.9013   0.00    0.0
2024/07/20 09:52:31.000   35.165318721  136.881460600    40.0539   5  30   2.4720   2.0415   5.7511   1.1703  -1.5824  -1.9008   0.00    0.0
2024/07/20 09:52:32.000   35.165319102  136.881460244    39.9719   5  30   2.4719   2.0414   5.7510   1.1702  -1.5821  -1.9003   0.00    0.0
2024/07/20 09:52:33.000   35.165319195  136.881460409    39.8520   5  30   2.4718   2.0414   5.7509   1.1702  -1.5817  -1.8999   0.00    0.0
2024/07/20 09:52:34.000   35.165319791  136.881460088    39.6641   5  30   2.4717   2.0413   5.7509   1.1701  -1.5814  -1.8994   0.00    0.0
2024/07/20 09:52:35.000   35.165320436  136.881459756    39.5127   5  30   2.4716   2.0412   5.7508   1.1700  -1.5810  -1.8990   0.00    0.0
2024/07/20 09:52:36.000   35.165320287  136.881459335    39.5328   5  30   2.4715   2.0411   5.7507   1.1700  -1.5806  -1.8985   0.00    0.0
2024/07/20 09:52:37.000   35.165319943  136.881458859    39.5980   5  30   2.4714   2.0410   5.7507   1.1699  -1.5803  -1.8981   0.00    0.0
2024/07/20 09:52:38.000   35.165319312  136.881458423    39.7112   5  30   2.4713   2.0410   5.7506   1.1699  -1.5799  -1.8976   0.00    0.0
2024/07/20 09:52:39.000   35.165318666  136.881458469    39.7469   5  30   2.4712   2.0409   5.7506   1.1698  -1.5795  -1.8972   0.00    0.0
2024/07/20 09:52:40.000   35.165318618  136.881458671    39.6560   5  30   2.4711   2.0408   5.7505   1.1697  -1.5792  -1.8967   0.00    0.0
2024/07/20 09:52:41.000   35.165315911  136.881460205    40.4961   5  29   2.5290   2.0502   5.8848   1.1234  -1.4988  -2.0662   0.00    0.0
2024/07/20 09:52:42.000   35.165315937  136.881460423    40.6044   5  29   2.5289   2.0501   5.8846   1.1233  -1.4984  -2.0657   0.00    0.0
2024/07/20 09:52:43.000   35.165316257  136.881460412    40.5618   5  29   2.5287   2.0501   5.8844   1.1233  -1.4981  -2.0652   0.00    0.0
2024/07/20 09:52:44.000   35.165316248  136.881460175    40.5256   5  29   2.5286   2.0500   5.8843   1.1232  -1.4977  -2.0646   0.00    0.0
2024/07/20 09:52:45.000   35.165316537  136.881459844    40.6113   5  29   2.5284   2.0499   5.8841   1.1232  -1.4974  -2.0641   0.00    0.0
2024/07/20 09:52:46.000   35.165316498  136.881460105    40.5512   5  29   2.5283   2.0498   5.8839   1.1231  -1.4970  -2.0636   0.00    0.0
2024/07/20 09:52:47.000   35.165316051  136.881460308    40.6279   5  29   2.5282   2.0498   5.8837   1.1230  -1.4966  -2.0630   0.00    0.0
2024/07/20 09:52:48.000   35.165315697  136.881460289    40.6878   5  29   2.5280   2.0497   5.8836   1.1230  -1.4963  -2.0625   0.00    0.0
2024/07/20 09:52:49.000   35.165315677  136.881460511    40.6722   5  29   2.5279   2.0496   5.8834   1.1229  -1.4959  -2.0620   0.00    0.0
2024/07/20 09:52:50.000   35.165315318  136.881460289    40.7570   5  29   2.5277   2.0496   5.8832   1.1229  -1.4955  -2.0614   0.00    0.0
2024/07/20 09:52:51.000   35.165315427  136.881459975    40.8811   5  29   2.5276   2.0495   5.8831   1.1228  -1.4952  -2.0609   0.00    0.0
2024/07/20 09:52:52.000   35.165316064  136.881460289    40.8680   5  29   2.5275   2.0494   5.8829   1.1227  -1.4948  -2.0604   0.00    0.0
2024/07/20 09:52:53.000   35.165316331  136.881460191    40.9149   5  29   2.5273   2.0493   5.8827   1.1227  -1.4945  -2.0598   0.00    0.0
2024/07/20 09:52:54.000   35.165315976  136.881460422    40.8507   5  29   2.5272   2.0493   5.8826   1.1226  -1.4941  -2.0593   0.00    0.0
2024/07/20 09:52:55.000   35.165315028  136.881460157    40.7955   5  29   2.5270   2.0492   5.8824   1.1226  -1.4937  -2.0588   0.00    0.0
2024/07/20 09:52:56.000   35.165315063  136.881460386    40.8792   5  29   2.5269   2.0491   5.8822   1.1225  -1.4934  -2.0582   0.00    0.0
2024/07/20 09:52:57.000   35.165314658  136.881460290    40.9213   5  29   2.5268   2.0490   5.8821   1.1224  -1.4930  -2.0577   0.00    0.0
2024/07/20 09:52:58.000   35.165315011  136.881461046    40.9271   5  29   2.5266   2.0490   5.8819   1.1224  -1.4926  -2.0572   0.00    0.0
2024/07/20 09:52:59.000   35.165319339  136.881462285    39.9936   5  30   2.4690   2.0394   5.7492   1.1685  -1.5723  -1.8880   0.00    0.0
2024/07/20 09:53:00.000   35.165319349  136.881467655    39.9265   5  30   2.4689   2.0393   5.7492   1.1684  -1.5719  -1.8876   0.00    0.0
2024/07/20 09:53:01.000   35.165319192  136.881472855    39.5003   5  30   2.4688   2.0392   5.7491   1.1684  -1.5715  -1.8871   0.00    0.0
2024/07/20 09:53:02.000   35.165318841  136.881479380    39.2913   5  30   2.4687   2.0391   5.7490   1.1683  -1.5712  -1.8867   0.00    0.0
2024/07/20 09:53:03.000   35.165318229  136.881482899    39.1499   5  30   2.4686   2.0390   5.7490   1.1682  -1.5708  -1.8862   0.00    0.0
2024/07/20 09:53:04.000   35.165317766  136.881483256    38.9426   5  29   2.4704   2.0682   5.9528   1.1827  -1.3896  -1.8451   0.00    0.0
2024/07/20 09:53:05.000   35.165317110  136.881480943    39.0222   5  30   2.4683   2.0389   5.7488   1.1681  -1.5701  -1.8853   0.00    0.0
2024/07/20 09:53:06.000   35.165313609  136.881472284    38.7746   5  30   2.4682   2.0388   5.7488   1.1681  -1.5697  -1.8848   0.00    0.0
2024/07/20 09:53:07.000   35.165306983  136.881458495    38.7259   5  29   2.4701   2.0680   5.9527   1.1825  -1.3882  -1.8435   0.00    0.0
2024/07/20 09:53:08.000   35.165299557  136.881440577    38.7349   5  30   2.4680   2.0387   5.7486   1.1679  -1.5690  -1.8839   0.00    0.0
2024/07/20 09:53:09.000   35.165294773  136.881421809    38.8891   5  30   2.4679   2.0386   5.7486   1.1679  -1.5686  -1.8834   0.00    0.0
2024/07/20 09:53:10.000   35.165291612  136.881402950    39.1088   5  30   2.4678   2.0385   5.7485   1.1678  -1.5682  -1.8830   0.00    0.0
2024/07/20 09:53:11.000   35.165290979  136.881386085    39.0928   5  30   2.4677   2.0384   5.7484   1.1677  -1.5678  -1.8825   0.00    0.0
2024/07/20 09:53:12.000   35.165291456  136.881361431    43.6172   5  31   2.4669   2.0031   5.4545   1.1769  -1.3310  -1.9095   0.00    0.0
2024/07/20 09:53:13.000   35.165292424  136.881356851    39.8464   5  30   2.4675   2.0383   5.7483   1.1676  -1.5671  -1.8816   0.00    0.0
2024/07/20 09:53:14.000   35.165293992  136.881338422    39.8533   5  30   2.4674   2.0382   5.7482   1.1675  -1.5667  -1.8811   0.00    0.0
2024/07/20 09:53:15.000   35.165294153  136.881305934    42.5428   5  31   2.4666   2.0029   5.4541   1.1768  -1.3299  -1.9084   0.00    0.0
2024/07/20 09:53:16.000   35.165292060  136.881276456    42.2482   5  31   2.4665   2.0028   5.4540   1.1767  -1.3295  -1.9080   0.00    0.0
2024/07/20 09:53:17.000   35.165290056  136.881247831    41.9399   5  31   2.4664   2.0028   5.4539   1.1767  -1.3291  -1.9076   0.00    0.0
2024/07/20 09:53:18.000   35.165288800  136.881222274    41.4859   5  31   2.4663   2.0027   5.4537   1.1767  -1.3288  -1.9072   0.00    0.0
2024/07/20 09:53:19.000   35.165288032  136.881202597    41.4494   5  31   2.4661   2.0027   5.4536   1.1766  -1.3284  -1.9068   0.00    0.0
2024/07/20 09:53:20.000   35.165288349  136.881187683    41.2564   5  31   2.4660   2.0026   5.4535   1.1766  -1.3280  -1.9064   0.00    0.0
2024/07/20 09:53:21.000   35.165287818  136.881175883    41.1619   5  31   2.4659   2.0026   5.4534   1.1765  -1.3276  -1.9061   0.00    0.0
2024/07/20 09:53:22.000   35.165288162  136.881164444    40.7457   5  31   2.4658   2.0025   5.4532   1.1765  -1.3273  -1.9057   0.00    0.0
2024/07/20 09:53:23.000   35.165289445  136.881152149    40.3042   5  31   2.4657   2.0025   5.4531   1.1764  -1.3269  -1.9053   0.00    0.0
2024/07/20 09:53:24.000   35.165290007  136.881138271    40.1728   5  31   2.4656   2.0024   5.4530   1.1764  -1.3265  -1.9049   0.00    0.0
2024/07/20 09:53:25.000   35.165290967  136.881121763    40.2983   5  32   2.4199   1.9748   5.3254   1.1080  -1.4651  -2.0446   0.00    0.0
2024/07/20 09:53:26.000   35.165290657  136.881106277    40.5732   5  31   2.4654   2.0023   5.4527   1.1763  -1.3257  -1.9041   0.00    0.0
2024/07/20 09:53:27.000   35.165291769  136.881095349    40.6878   5  31   2.4653   2.0022   5.4526   1.1763  -1.3254  -1.9038   0.00    0.0
2024/07/20 09:53:28.000   35.165290379  136.881083388    40.6835   5  32   2.4647   2.0011   5.3291   1.1749  -1.3534  -1.9178   0.00    0.0
2024/07/20 09:53:29.000   35.165286462  136.881068895    40.4171   5  30   2.4669   2.0362   5.6361   1.1912  -1.1067  -1.8667   0.00    0.0
2024/07/20 09:53:30.000   35.165280564  136.881058490    40.4807   5  31   2.4662   2.0340   5.4941   1.1890  -1.1581  -1.8847   0.00    0.0
2024/07/20 09:53:31.000   35.165276186  136.881054013    40.7692   5  31   2.4661   2.0340   5.4940   1.1890  -1.1577  -1.8843   0.00    0.0
2024/07/20 09:53:32.000   35.165274412  136.881053011    40.9412   5  31   2.4660   2.0339   5.4938   1.1889  -1.1572  -1.8839   0.00    0.0
2024/07/20 09:53:33.000   35.165274290  136.881053640    41.0167   5  31   2.4659   2.0339   5.4937   1.1889  -1.1568  -1.8835   0.00    0.0
2024/07/20 09:53:34.000   35.165274899  136.881053097    41.0559   5  31   2.4657   2.0338   5.4935   1.1889  -1.1564  -1.8831   0.00    0.0
2024/07/20 09:53:35.000   35.165274247  136.881052989    41.2260   5  31   2.4656   2.0338   5.4934   1.1888  -1.1559  -1.8827   0.00    0.0
2024/07/20 09:53:36.000   35.165274650  136.881053223    41.0290   5  31   2.4655   2.0338   5.4933   1.1888  -1.1555  -1.8823   0.00    0.0
2024/07/20 09:53:37.000   35.165274697  136.881053525    41.1474   5  31   2.4654   2.0337   5.4931   1.1888  -1.1550  -1.8819   0.00    0.0
2024/07/20 09:53:38.000   35.165274680  136.881053402    41.2691   5  31   2.4653   2.0337   5.4930   1.1887  -1.1546  -1.8816   0.00    0.0
2024/07/20 09:53:39.000   35.165275185  136.881053518    41.2711   5  31   2.4652   2.0336   5.4928   1.1887  -1.1541  -1.8812   0.00    0.0
2024/07/20 09:53:40.000   35.165275578  136.881054186    41.2568   5  31   2.4651   2.0336   5.4927   1.1887  -1.1537  -1.8808   0.00    0.0
2024/07/20 09:53:41.000   35.165275945  136.881054164    41.1543   5  31   2.4650   2.0335   5.4926   1.1886  -1.1532  -1.8804   0.00    0.0
2024/07/20 09:53:42.000   35.165275801  136.881054166    41.2668   5  31   2.4649   2.0335   5.4924   1.1886  -1.1528  -1.8800   0.00    0.0
2024/07/20 09:53:43.000   35.165276042  136.881054054    41.1892   5  31   2.4648   2.0334   5.4923   1.1885  -1.1523  -1.8796   0.00    0.0
2024/07/20 09:53:44.000   35.165275776  136.881053125    41.1573   5  31   2.4646   2.0334   5.4921   1.1885  -1.1519  -1.8792   0.00    0.0
2024/07/20 09:53:45.000   35.165272631  136.881049254    41.0786   5  31   2.4645   2.0333   5.4920   1.1885  -1.1514  -1.8788   0.00    0.0
2024/07/20 09:53:46.000   35.165265725  136.881043818    40.6711   5  31   2.4644   2.0333   5.4918   1.1884  -1.1510  -1.8784   0.00    0.0
2024/07/20 09:53:47.000   35.165252735  136.881041323    41.4300   5  29   2.7556   2.0580   5.5623   1.1859  -1.0330  -1.9968   0.00    0.0
2024/07/20 09:53:48.000   35.165242394  136.881039985    39.3830   5  30   2.4651   2.0641   5.7840   1.1787  -1.4032  -1.8461   0.00    0.0
2024/07/20 09:53:49.000   35.165230634  136.881037700    39.2665   5  29   2.4657   2.0651   5.9518   1.1803  -1.3688  -1.8222   0.00    0.0
2024/07/20 09:53:50.000   35.165227829  136.881033693    40.7596   5  28   2.7287   2.0848   6.0333   1.1772  -0.5208  -2.0848   0.00    0.0
2024/07/20 09:53:51.000   35.165222998  136.881039066    40.2478   5  24   2.8071   2.3948   6.9793   1.3242   1.2083  -1.8641   0.00    0.0
2024/07/20 09:53:52.000   35.165223724  136.881039301    40.6717   5  24   2.8070   2.3947   6.9791   1.3242   1.2092  -1.8633   0.00    0.0
2024/07/20 09:53:53.000   35.165223650  136.881039582    41.0771   5  24   2.8069   2.3947   6.9789   1.3242   1.2100  -1.8624   0.00    0.0
2024/07/20 09:53:54.000   35.165223129  136.881038974    41.1314   5  24   2.8068   2.3947   6.9787   1.3242   1.2108  -1.8615   0.00    0.0
2024/07/20 09:53:55.000   35.165222594  136.881038715    41.1114   5  24   2.8067   2.3946   6.9786   1.3242   1.2116  -1.8607   0.00    0.0
2024/07/20 09:53:56.000   35.165222334  136.881037840    41.0254   5  24   2.8066   2.3946   6.9784   1.3242   1.2124  -1.8598   0.00    0.0
2024/07/20 09:53:57.000   35.165222656  136.881037965    41.0425   5  24   2.8065   2.3945   6.9782   1.3242   1.2132  -1.8590   0.00    0.0
2024/07/20 09:53:58.000   35.165222339  136.881038863    41.1703   5  24   2.8064   2.3945   6.9780   1.3242   1.2140  -1.8581   0.00    0.0
2024/07/20 09:53:59.000   35.165222402  136.881039395    41.3652   5  24   2.8063   2.3945   6.9779   1.3241   1.2148  -1.8572   0.00    0.0
2024/07/20 09:54:00.000   35.165222490  136.881039517    41.6073   5  24   2.8062   2.3944   6.9777   1.3241   1.2156  -1.8564   0.00    0.0
2024/07/20 09:54:01.000   35.165222079  136.881039805    41.7391   5  24   2.8061   2.3944   6.9775   1.3241   1.2164  -1.8555   0.00    0.0
2024/07/20 09:54:02.000   35.165220547  136.881042248    42.6746   5  24   3.2678   2.3697   6.3500   1.7133  -0.2439  -1.0646   0.00    0.0
2024/07/20 09:54:03.000   35.165213730  136.881038143    40.5700   5  24   3.0180   2.2213   6.9287   1.1839   0.8384  -1.8515   0.00    0.0
2024/07/20 09:54:04.000   35.165203408  136.881037945    39.7348   5  24   3.0179   2.2213   6.9284   1.1839   0.8390  -1.8510   0.00    0.0
2024/07/20 09:54:05.000   35.165193083  136.881038640    39.1522   5  25   3.2957   2.0913   6.8785   1.2418  -1.0185  -2.4864   0.00    0.0
2024/07/20 09:54:06.000   35.165186032  136.881035958    38.0151   5  26   2.9209   2.1009   6.1998   1.3358  -1.3457  -1.1882   0.00    0.0
2024/07/20 09:54:07.000   35.165170388  136.881031094    38.8324   5  24   2.9940   2.1514   6.4993   1.2584  -0.9654  -1.5699   0.00    0.0
2024/07/20 09:54:08.000   35.165159515  136.881019629    38.4326   5  24   3.2848   2.2121   6.1207   1.0479  -1.3298  -0.9182   0.00    0.0
2024/07/20 09:54:09.000   35.165152808  136.881004362    38.6048   5  25   2.8510   2.1739   6.0740   1.0415  -1.5803  -1.6407   0.00    0.0
2024/07/20 09:54:10.000   35.165141807  136.880991392    40.1148   5  24   2.7201   2.2511   6.7079   0.7350  -0.9109  -2.3435   0.00    0.0
2024/07/20 09:54:11.000   35.165136224  136.880973163    40.2262   5  23   2.8835   2.2561   6.9436   0.8275  -0.7465  -1.9421   0.00    0.0
2024/07/20 09:54:12.000   35.165141782  136.880946872    39.6891   5  24   3.1759   2.2020   6.6733   1.0214  -0.8844  -1.2833   0.00    0.0
2024/07/20 09:54:13.000   35.165145256  136.880918456    39.2144   5  24   3.1758   2.2020   6.6732   1.0215  -0.8835  -1.2828   0.00    0.0
2024/07/20 09:54:14.000   35.165153392  136.880885830    38.7947   5  23   3.4531   2.3515   6.7345   1.4704  -0.1739  -0.6432   0.00    0.0
2024/07/20 09:54:15.000   35.165156043  136.880853007    39.2742   5  24   3.2624   2.3094   6.8985   1.5878   0.9259  -1.4838   0.00    0.0
2024/07/20 09:54:16.000   35.165164669  136.880817447    38.3890   5  25   3.1892   2.2915   6.6880   1.6487   0.6123  -1.0180   0.00    0.0
2024/07/20 09:54:17.000   35.165168728  136.880784436    39.5518   5  23   3.2628   2.3289   6.9758   1.5927   0.7411  -1.4991   0.00    0.0
2024/07/20 09:54:18.000   35.165183079  136.880749481    41.8767   5  24   3.1825   2.4163   6.6750   1.6792   1.0929  -1.1634   0.00    0.0
2024/07/20 09:54:19.000   35.165184786  136.880716860    39.6431   5  24   2.9012   2.3613   6.7184   1.4648   0.6152  -1.9177   0.00    0.0
2024/07/20 09:54:20.000   35.165178233  136.880686426    38.9811   5  24   2.7278   2.4153   6.9598   1.4641  -1.0870  -2.4722   0.00    0.0
2024/07/20 09:54:21.000   35.165163469  136.880656609    38.7211   5  25   2.7228   2.3864   6.8753   1.4432  -0.8809  -2.4359   0.00    0.0
2024/07/20 09:54:22.000   35.165138124  136.880636443    40.6550   5  25   2.6700   2.5115   6.8333   1.0257   1.5319  -2.4411   0.00    0.0
2024/07/20 09:54:23.000   35.165106718  136.880620166    40.2435   5  25   2.6893   2.4037   6.6389   1.0173   0.7857  -2.3337   0.00    0.0
2024/07/20 09:54:24.000   35.165067533  136.880609586    39.9336   5  25   2.6891   2.4036   6.6387   1.0173   0.7870  -2.3330   0.00    0.0
2024/07/20 09:54:25.000   35.165023824  136.880595857    38.6703   5  24   2.6435   2.6937   6.6003   1.3501  -1.4734  -2.2275   0.00    0.0
2024/07/20 09:54:26.000   35.164969575  136.880585696    38.4607   5  24   2.6434   2.6936   6.6004   1.3499  -1.4727  -2.2269   0.00    0.0
2024/07/20 09:54:27.000   35.164908434  136.880575097    38.7517   5  25   2.6270   2.5749   6.5702   1.4329  -1.2917  -2.2674   0.00    0.0
2024/07/20 09:54:28.000   35.164842880  136.880562930    38.1277   5  23   2.8907   2.9127   7.3228   1.7795  -1.8964  -2.9792   0.00    0.0
2024/07/20 09:54:29.000   35.164769913  136.880552226    38.2699   5  23   2.8905   2.9126   7.3229   1.7793  -1.8957  -2.9788   0.00    0.0
2024/07/20 09:54:30.000   35.164697878  136.880541756    37.0836   5  22   3.3752   2.9134   8.9002   1.7413  -1.7903  -4.2056   0.00    0.0
2024/07/20 09:54:31.000   35.164619224  136.880531570    36.7886   5  22   3.3750   2.9132   8.9001   1.7409  -1.7893  -4.2052   0.00    0.0
2024/07/20 09:54:32.000   35.164537675  136.880519948    36.8528   5  23   3.2558   2.6564   8.4845   1.4028   0.1242  -3.9106   0.00    0.0
2024/07/20 09:54:33.000   35.164447639  136.880513866    39.1009   5  22   3.4375   2.7693   9.3158   0.2525   2.4961  -4.4157   0.00    0.0
2024/07/20 09:54:34.000   35.164369869  136.880503191    37.0816   5  24   2.8912   2.6344   7.6652   0.8102   2.0295  -3.1154   0.00    0.0
2024/07/20 09:54:35.000   35.164284918  136.880499935    37.1546   5  24   2.8910   2.6345   7.6650   0.8099   2.0302  -3.1148   0.00    0.0
2024/07/20 09:54:36.000   35.164198351  136.880498294    37.4321   5  24   2.8908   2.6345   7.6647   0.8097   2.0309  -3.1142   0.00    0.0
2024/07/20 09:54:37.000   35.164111353  136.880500195    37.7682   5  24   2.9612   2.3751   7.5474   0.2041   1.5975  -3.2768   0.00    0.0
2024/07/20 09:54:38.000   35.164026304  136.880501818    38.0138   5  26   2.8586   2.2634   7.4410   0.6194   1.2904  -3.1611   0.00    0.0
2024/07/20 09:54:39.000   35.163939523  136.880502040    38.2471   5  26   2.8584   2.2634   7.4405   0.6192   1.2910  -3.1606   0.00    0.0
2024/07/20 09:54:40.000   35.163853356  136.880503067    38.5368   5  26   2.8582   2.2634   7.4401   0.6191   1.2916  -3.1600   0.00    0.0
2024/07/20 09:54:41.000   35.163766272  136.880504147    38.9557   5  27   2.8356   2.1869   6.8677   0.7692   0.0161  -2.9933   0.00    0.0
2024/07/20 09:54:42.000   35.163681094  136.880503882    38.2883   5  26   2.8578   2.2634   7.4392   0.6187   1.2928  -3.1589   0.00    0.0
2024/07/20 09:54:43.000   35.163594184  136.880506424    38.0982   5  27   2.8045   2.1562   7.2228   0.8720   0.6694  -2.9998   0.00    0.0
2024/07/20 09:54:44.000   35.163508977  136.880504488    36.5923   5  28   2.7459   2.1048   6.9000   1.0131  -0.7407  -2.7894   0.00    0.0
2024/07/20 09:54:45.000   35.163414415  136.880508236    37.8841   5  28   2.5201   2.1420   6.3438   1.0309  -0.6315  -2.1788   0.00    0.0
2024/07/20 09:54:46.000   35.163324938  136.880509993    37.3198   5  29   2.5200   2.0959   6.0563   1.0304  -1.1098  -2.1793   0.00    0.0
2024/07/20 09:54:47.000   35.163233649  136.880511308    36.1122   5  28   2.5199   2.1420   6.3436   1.0308  -0.6291  -2.1779   0.00    0.0
2024/07/20 09:54:48.000   35.163138577  136.880511704    35.5274   5  29   2.4970   2.0986   6.1646   1.0987  -1.0177  -2.0582   0.00    0.0
2024/07/20 09:54:49.000   35.163041956  136.880512259    35.0201   5  29   2.4969   2.0985   6.1645   1.0987  -1.0170  -2.0577   0.00    0.0
2024/07/20 09:54:50.000   35.162945977  136.880523971    34.0223   5  26   2.7430   2.7522   6.7122   1.7585  -2.3329  -2.6639   0.00    0.0
2024/07/20 09:54:51.000   35.162843094  136.880537379    34.7334   5  22   3.1662   3.2330   7.4331   1.7866  -2.8452  -2.5128   0.00    0.0
2024/07/20 09:54:52.000   35.162738208  136.880564536    33.6759   5  19   3.0325   4.6000   8.1756   1.3635  -4.4421  -2.8501   0.00    0.0
2024/07/20 09:54:53.000   35.162630881  136.880599921    32.6332   5  14   6.3542   6.3763  11.5565  -4.4871  -7.1756   5.2613   0.00    0.0
2024/07/20 09:55:10.000   35.161007509  136.881708182    42.7188   5   6 688.5115 270.5285 406.0863 -430.7454 326.8803 -525.7920   0.00    0.0
2024/07/20 09:55:12.000   35.161149270  136.881709638    37.0920   5  13   5.2122   2.9107  12.3417   1.9043   1.4761  -5.0750   0.00    0.0
2024/07/20 09:55:13.000   35.161223610  136.881766563    29.4574   5  17   5.3591   3.0546  13.2826  -1.8986   3.5902  -7.4241   0.00    0.0
2024/07/20 09:55:14.000   35.161245934  136.881846481    30.4770   5  15   6.6498   3.6080  17.4338   1.9259  -2.7033  -9.9637   0.00    0.0
2024/07/20 09:55:15.000   35.161269553  136.881925528    31.7698   5  11   9.5240   4.3048  14.1583  -4.5348   4.9509  -9.2367   0.00    0.0
2024/07/20 09:55:16.000   35.161308330  136.881982440    24.7227   5   9  16.6648  14.6457  47.4140 -14.9273  25.7029 -27.4091   0.00    0.0
2024/07/20 09:55:17.000   35.161310267  136.882077402    34.8161   5   8  23.6592  16.0124  56.2252 -13.5237  22.1770 -36.0809   0.00    0.0
2024/07/20 09:55:18.000   35.161286242  136.882205405    44.3798   5   8 684.3222 267.5611 402.1942 -427.0534 323.4275 -521.6128   0.00    0.0
2024/07/20 09:55:21.000   35.161456338  136.882544507    42.4769   5  10   9.7770   3.8679  18.2172  -1.6134   5.4224 -10.9443   0.00    0.0
2024/07/20 09:55:22.000   35.161412771  136.882656536    51.6269   5  12   6.2129   3.5567  12.3107   2.9804   2.9982  -4.2888   0.00    0.0
2024/07/20 09:55:23.000   35.161440835  136.882760544    49.1798   5  14   4.9650   3.1385  11.8218   1.6330   2.7128  -4.5553   0.00    0.0
2024/07/20 09:55:24.000   35.161482755  136.882851643    45.6543   5  12   7.0381   3.8226  13.6702   3.6262   4.2838   1.0824   0.00    0.0
2024/07/20 09:55:25.000   35.161548739  136.882942661    36.5683   5  15   5.2446   2.8145  11.5782   0.7952   2.1628  -5.9288   0.00    0.0
2024/07/20 09:55:26.000   35.161576153  136.883043575    36.7284   5  17   4.4577   2.7707  10.6185  -0.5807   2.5964  -4.8063   0.00    0.0
2024/07/20 09:55:27.000   35.161604856  136.883142157    37.5235   5  16   4.5037   3.2224  10.6296  -0.3297   2.7527  -4.7369   0.00    0.0
2024/07/20 09:55:28.000   35.161614449  136.883265453    48.5752   5  19   4.2875   3.0362   9.1115  -0.5966   2.1673  -5.0121   0.00    0.0
2024/07/20 09:55:29.000   35.161662973  136.883348769    38.0322   5  16   4.7138   3.7136  10.2669  -1.2633   2.2298  -5.7288   0.00    0.0
2024/07/20 09:55:30.000   35.161695705  136.883453594    37.9293   5  13   6.3897   5.0639  13.9112   3.3328  -4.9312  -8.4978   0.00    0.0
2024/07/20 09:55:31.000   35.161746324  136.883511219    34.7884   5   9  10.5402  12.5153  35.0468 -10.5278  20.2169 -18.0324   0.00    0.0
2024/07/20 09:55:32.000   35.161765165  136.883642315    40.7449   5  11   9.5856   5.4328  15.9121  -5.2921   7.5216  -9.5639   0.00    0.0
2024/07/20 09:55:33.000   35.161783919  136.883752955    40.2908   5  12   6.2552   4.6807  11.7917  -2.9915  -0.3297  -4.4953   0.00    0.0
2024/07/20 09:55:34.000   35.161810504  136.883866087    40.9315   5  10   6.2872   5.5245  11.8035  -2.6642  -1.3054  -4.5331   0.00    0.0
2024/07/20 09:55:35.000   35.161837117  136.883968345    40.9065   5  10   7.7275   5.5371  11.8614  -2.9702  -1.5869  -3.1288   0.00    0.0
2024/07/20 09:55:36.000   35.161767074  136.884171166    27.1733   5  10  13.3092  18.0482  32.9090 -14.3833 -23.0430  18.7856   0.00    0.0
2024/07/20 09:55:37.000   35.161933850  136.884098818    52.2954   5  10  12.1484  10.0399  22.6169  -9.7926 -13.1258  13.1340   0.00    0.0
2024/07/20 09:55:38.000   35.162457642  136.884052213    38.6053   5  13   4.9843   3.6620   9.9603   1.0561  -1.8116  -4.3046   0.00    0.0
2024/07/20 09:55:39.000   35.162001776  136.884322069    43.9547   5  10  38.8245  28.5570  13.7363 -32.8904  -9.0553   7.4208   0.00    0.0
2024/07/20 09:55:40.000   35.161978213  136.884481090    42.3741   5  14   7.0304   5.4680  11.3826  -4.5579   3.6522  -6.4014   0.00    0.0
2024/07/20 09:55:41.000   35.162015281  136.884570629    41.8121   5  16   5.3644   2.9158   9.9977  -1.8611   2.3523  -5.7695   0.00    0.0
2024/07/20 09:55:42.000   35.162038132  136.884675531    41.3661   5  15   6.7114   3.8572  10.4294  -3.6945   3.6127  -6.7292   0.00    0.0
2024/07/20 09:55:43.000   35.162123431  136.884777607    44.3393   5  17   4.5834   3.1025   9.5127  -1.7950   1.9049  -5.3551   0.00    0.0
2024/07/20 09:55:44.000   35.162076628  136.884888267    40.2050   5  16   5.1801   3.1042   9.5702  -1.7897   1.8926  -5.1352   0.00    0.0
2024/07/20 09:55:45.000   35.162089485  136.884997922    38.7937   5  13  10.4481   4.3947  12.6411  -5.5233   5.2459 -10.0406   0.00    0.0
2024/07/20 09:55:46.000   35.162084972  136.885105538    40.7105   5  12  12.8969   4.5574  14.8547  -6.2959   6.0778 -12.6414   0.00    0.0
2024/07/20 09:55:47.000   35.162071251  136.885227956    47.2391   5  17   4.8507   2.5229   7.9482  -1.4005   1.6542  -3.7527   0.00    0.0
2024/07/20 09:55:48.000   35.162143907  136.885301714    41.1575   5  18   5.3365   2.5246   9.3745  -1.4846   2.3770  -5.4474   0.00    0.0
2024/07/20 09:55:49.000   35.162167727  136.885393630    39.3134   5  16   4.5925   3.0652  10.6337  -2.3372   3.8551  -5.2198   0.00    0.0
2024/07/20 09:55:50.000   35.162200732  136.885492643    42.9496   5  16   4.6200   3.0634  11.6536  -1.5054   2.8753  -6.3017   0.00    0.0
2024/07/20 09:55:51.000   35.163709214  136.886355981  -251.2426   5   8 2072.9947 778.4725 3537.2358 1270.3277 -1659.3653 -2707.8438   0.00    0.0
2024/07/20 09:55:55.000   35.162165502  136.885890742    59.0968   5   9   4.9058  11.2826  13.6588  -1.7974  -5.0626  -4.6096   0.00    0.0
2024/07/20 09:55:57.000   35.162240769  136.885902287    38.3128   5  10  10.1342  24.0786  67.8795 -13.6727  40.1094 -23.5236   0.00    0.0
2024/07/20 09:55:58.000   35.162224586  136.886058542    58.3997   5  14   4.1932   4.2425  11.6472  -1.7687   4.5849  -5.4663   0.00    0.0
2024/07/20 09:55:59.000   35.162300118  136.886013106    38.5906   5  19   4.8143   3.0487  11.8332  -1.5049   3.6320  -6.5270   0.00    0.0
2024/07/20 09:56:00.000   35.162310695  136.886027179    39.6038   5  19   4.8130   3.0487  11.8304  -1.5046   3.6319  -6.5247   0.00    0.0
2024/07/20 09:56:01.000   35.162326228  136.886037014    39.7527   5  19   4.4074   3.4926  11.9342  -2.1846   4.6901  -6.1818   0.00    0.0
2024/07/20 09:56:02.000   35.162343559  136.886044096    40.4357   5  21   3.6501   2.7381   9.2876   0.3909   2.4976  -4.4645   0.00    0.0
2024/07/20 09:56:03.000   35.162382914  136.886037455    37.2840   5  21   3.3529   2.6652   8.8200   1.0614   2.0780  -3.8242   0.00    0.0
2024/07/20 09:56:04.000   35.162422923  136.886031700    37.4741   5  22   3.3464   2.4084   8.4963   0.9443   1.2727  -3.8868   0.00    0.0
2024/07/20 09:56:05.000   35.162471860  136.886024164    38.0522   5  22   3.2846   2.5845   8.1322   1.5177  -1.2697  -3.6561   0.00    0.0
2024/07/20 09:56:06.000   35.162535238  136.886009791    37.5552   5  22   3.3436   2.8856   8.1665   1.7889  -2.3111  -3.8112   0.00    0.0
2024/07/20 09:56:07.000   35.162571355  136.885957630    46.2064   5  23   2.9720   2.5533   7.4678   1.0682  -0.9472  -3.0760   0.00    0.0
2024/07/20 09:56:08.000   35.162679310  136.885971561    38.6189   5  24   3.1326   2.7917   7.6317   1.6901  -2.4192  -3.4409   0.00    0.0
2024/07/20 09:56:09.000   35.162753829  136.885943531    39.2685   5  26   2.6926   2.2787   6.5627   1.4530  -1.3137  -2.2602   0.00    0.0
2024/07/20 09:56:10.000   35.162839330  136.885924854    39.2673   5  26   2.7762   2.3931   6.3524   1.6151  -1.2548  -2.2008   0.00    0.0
2024/07/20 09:56:11.000   35.162926264  136.885902532    39.4078   5  26   2.7761   2.3930   6.3523   1.6150  -1.2539  -2.2003   0.00    0.0
2024/07/20 09:56:12.000   35.163013148  136.885878825    39.8192   5  27   2.6377   2.2630   6.1819   1.3911  -0.6585  -1.8906   0.00    0.0
2024/07/20 09:56:13.000   35.163101682  136.885857594    39.4647   5  26   2.6392   2.2701   6.4154   1.3971  -0.3500  -1.8464   0.00    0.0
2024/07/20 09:56:14.000   35.163190221  136.885835545    39.6560   5  29   2.5351   2.1606   5.7753   1.3446  -1.2724  -1.7257   0.00    0.0
2024/07/20 09:56:15.000   35.163278502  136.885814249    39.6414   5  28   2.6548   2.2853   5.9444   1.5476  -1.6328  -2.0214   0.00    0.0
2024/07/20 09:56:16.000   35.163367312  136.885793975    39.0984   5  25   2.7095   2.3799   6.8883   1.4335  -0.6929  -2.3748   0.00    0.0
2024/07/20 09:56:17.000   35.163455836  136.885778931    39.6215   5  26   2.7500   2.3528   6.1336   1.6723  -1.5455  -1.9425   0.00    0.0
2024/07/20 09:56:18.000   35.163541427  136.885761351    39.6419   5  26   2.7225   2.5181   6.1930   1.7245  -1.9362  -2.1487   0.00    0.0
2024/07/20 09:56:19.000   35.163631175  136.885750847    39.7027   5  25   2.8051   2.5981   6.2099   1.8457  -1.8585  -2.0749   0.00    0.0
2024/07/20 09:56:20.000   35.163714800  136.885735883    39.4517   5  25   2.8049   2.5979   6.2099   1.8455  -1.8580  -2.0743   0.00    0.0
2024/07/20 09:56:21.000   35.163795259  136.885719792    39.2893   5  27   2.6313   2.4460   6.1919   1.5990  -1.9518  -2.1650   0.00    0.0
2024/07/20 09:56:22.000   35.163873488  136.885704660    39.1578   5  27   2.6312   2.4459   6.1919   1.5989  -1.9514  -2.1645   0.00    0.0
2024/07/20 09:56:23.000   35.163942007  136.885687975    39.4866   5  28   2.5779   2.1902   6.1170   1.4082  -1.6618  -2.0440   0.00    0.0
2024/07/20 09:56:24.000   35.164004956  136.885676065    39.1881   5  27   2.6553   2.2861   6.1283   1.5494  -1.5861  -1.9845   0.00    0.0
2024/07/20 09:56:25.000   35.164057591  136.885664091    38.9995   5  28   2.5777   2.1900   6.1169   1.4081  -1.6609  -2.0430   0.00    0.0
2024/07/20 09:56:26.000   35.164100687  136.885656151    39.1861   5  27   2.6308   2.4453   6.1917   1.5985  -1.9498  -2.1627   0.00    0.0
2024/07/20 09:56:27.000   35.164134193  136.885647739    39.2411   5  27   2.6307   2.4452   6.1917   1.5984  -1.9494  -2.1623   0.00    0.0
2024/07/20 09:56:28.000   35.164159877  136.885643718    39.2122   5  25   2.7609   2.7992   6.4744   1.9036  -2.4108  -2.3415   0.00    0.0
2024/07/20 09:56:29.000   35.164173259  136.885638319    39.4253   5  25   2.7608   2.7989   6.4745   1.9034  -2.4104  -2.3410   0.00    0.0
2024/07/20 09:56:30.000   35.164178031  136.885632208    39.2904   5  26   2.6842   2.7162   6.4678   1.7852  -2.4513  -2.3811   0.00    0.0
2024/07/20 09:56:31.000   35.164182447  136.885637001    39.4787   5  26   2.6840   2.7160   6.4678   1.7850  -2.4510  -2.3807   0.00    0.0
2024/07/20 09:56:32.000   35.164184546  136.885639835    39.5157   5  26   2.6839   2.7158   6.4679   1.7849  -2.4507  -2.3802   0.00    0.0
2024/07/20 09:56:33.000   35.164184419  136.885639615    39.6486   5  26   2.6838   2.7157   6.4679   1.7847  -2.4504  -2.3798   0.00    0.0
2024/07/20 09:56:34.000   35.164185624  136.885641178    39.6655   5  26   2.6837   2.7155   6.4680   1.7845  -2.4501  -2.3794   0.00    0.0
2024/07/20 09:56:35.000   35.164186253  136.885643145    39.8256   5  26   2.6835   2.7153   6.4680   1.7844  -2.4498  -2.3789   0.00    0.0
2024/07/20 09:56:36.000   35.164186692  136.885644224    39.8925   5  26   2.6834   2.7151   6.4681   1.7842  -2.4495  -2.3785   0.00    0.0
2024/07/20 09:56:37.000   35.164187041  136.885645448    39.8596   5  26   2.6833   2.7149   6.4681   1.7840  -2.4492  -2.3780   0.00    0.0
2024/07/20 09:56:38.000   35.164188059  136.885645423    39.8775   5  26   2.6831   2.7147   6.4682   1.7839  -2.4489  -2.3776   0.00    0.0
2024/07/20 09:56:39.000   35.164187794  136.885645537    39.8581   5  26   2.6830   2.7145   6.4683   1.7837  -2.4486  -2.3772   0.00    0.0
2024/07/20 09:56:40.000   35.164187320  136.885644703    39.7892   5  26   2.6829   2.7143   6.4683   1.7835  -2.4483  -2.3767   0.00    0.0
2024/07/20 09:56:41.000   35.164186140  136.885643733    40.0819   5  26   2.6827   2.7141   6.4684   1.7834  -2.4480  -2.3763   0.00    0.0
2024/07/20 09:56:42.000   35.164185689  136.885642457    40.2171   5  26   2.6826   2.7139   6.4684   1.7832  -2.4477  -2.3759   0.00    0.0
2024/07/20 09:56:43.000   35.164185155  136.885641928    40.0521   5  26   2.6825   2.7138   6.4685   1.7830  -2.4474  -2.3754   0.00    0.0
2024/07/20 09:56:44.000   35.164185171  136.885641341    39.8939   5  26   2.6823   2.7136   6.4685   1.7829  -2.4472  -2.3750   0.00    0.0
2024/07/20 09:56:45.000   35.164184933  136.885640822    39.8782   5  26   2.6822   2.7134   6.4686   1.7827  -2.4469  -2.3745   0.00    0.0
2024/07/20 09:56:46.000   35.164184910  136.885640862    39.9160   5  26   2.6821   2.7132   6.4686   1.7825  -2.4466  -2.3741   0.00    0.0
2024/07/20 09:56:47.000   35.164185151  136.885641825    39.9425   5  26   2.6819   2.7130   6.4687   1.7824  -2.4463  -2.3737   0.00    0.0
2024/07/20 09:56:48.000   35.164185370  136.885643113    40.0129   5  26   2.6818   2.7128   6.4687   1.7822  -2.4460  -2.3732   0.00    0.0
2024/07/20 09:56:49.000   35.164185743  136.885644774    40.1379   5  26   2.6817   2.7126   6.4688   1.7820  -2.4457  -2.3728   0.00    0.0
2024/07/20 09:56:50.000   35.164186520  136.885645968    40.2040   5  26   2.6815   2.7124   6.4688   1.7819  -2.4454  -2.3723   0.00    0.0
2024/07/20 09:56:51.000   35.164187688  136.885647784    40.4003   5  26   2.6814   2.7122   6.4689   1.7817  -2.4451  -2.3719   0.00    0.0
2024/07/20 09:56:52.000   35.164189903  136.885649734    40.3880   5  26   2.6813   2.7121   6.4690   1.7815  -2.4448  -2.3715   0.00    0.0
2024/07/20 09:56:53.000   35.164191871  136.885651875    40.4002   5  26   2.6811   2.7119   6.4690   1.7814  -2.4445  -2.3710   0.00    0.0
2024/07/20 09:56:54.000   35.164183533  136.885641443    39.9583   5  25   2.7572   2.7936   6.4769   1.8987  -2.4002  -2.3271   0.00    0.0
2024/07/20 09:56:55.000   35.164183893  136.885641486    39.9377   5  25   2.7570   2.7934   6.4769   1.8985  -2.3997  -2.3265   0.00    0.0
2024/07/20 09:56:56.000   35.164183800  136.885641380    40.1167   5  25   2.7569   2.7932   6.4770   1.8983  -2.3993  -2.3259   0.00    0.0
2024/07/20 09:56:57.000   35.164183366  136.885641368    40.1441   5  25   2.7568   2.7930   6.4771   1.8981  -2.3989  -2.3254   0.00    0.0
2024/07/20 09:56:58.000   35.164182836  136.885642038    40.3439   5  25   2.7566   2.7928   6.4772   1.8979  -2.3985  -2.3248   0.00    0.0
2024/07/20 09:56:59.000   35.164183032  136.885642842    40.3409   5  25   2.7565   2.7926   6.4773   1.8977  -2.3981  -2.3243   0.00    0.0
2024/07/20 09:57:00.000   35.164182792  136.885642564    40.5007   5  25   2.7563   2.7923   6.4774   1.8976  -2.3977  -2.3237   0.00    0.0
2024/07/20 09:57:01.000   35.164182973  136.885642513    40.3528   5  25   2.7562   2.7921   6.4775   1.8974  -2.3973  -2.3231   0.00    0.0
2024/07/20 09:57:02.000   35.164183698  136.885642693    40.0643   5  25   2.7560   2.7919   6.4776   1.8972  -2.3969  -2.3226   0.00    0.0
2024/07/20 09:57:03.000   35.164184290  136.885643764    39.9879   5  25   2.7559   2.7917   6.4777   1.8970  -2.3964  -2.3220   0.00    0.0
2024/07/20 09:57:04.000   35.164183962  136.885644785    39.9337   5  25   2.7557   2.7915   6.4778   1.8968  -2.3960  -2.3214   0.00    0.0
2024/07/20 09:57:05.000   35.164218261  136.885686461    41.6492   5  26   2.6796   2.7096   6.4696   1.7794  -2.4409  -2.3657   0.00    0.0
2024/07/20 09:57:06.000   35.164194247  136.885643252    39.4772   5  25   2.7555   2.7911   6.4780   1.8964  -2.3952  -2.3203   0.00    0.0
2024/07/20 09:57:07.000   35.164218170  136.885638433    39.0256   5  25   2.7553   2.7909   6.4781   1.8962  -2.3948  -2.3198   0.00    0.0
2024/07/20 09:57:08.000   35.164254897  136.885632811    39.4450   5  24   2.7758   2.7999   6.7222   1.8757  -2.3078  -2.4463   0.00    0.0
2024/07/20 09:57:09.000   35.164305680  136.885625031    39.2102   5  24   2.8032   3.2299   6.7836   2.1061  -3.0007  -2.5332   0.00    0.0
2024/07/20 09:57:10.000   35.164365774  136.885617843    39.4170   5  24   2.8030   3.2295   6.7838   2.1058  -3.0003  -2.5326   0.00    0.0
2024/07/20 09:57:11.000   35.164432129  136.885610435    40.1742   5  23   2.8423   3.2452   6.8848   2.0690  -2.9362  -2.6393   0.00    0.0
2024/07/20 09:57:12.000   35.164505085  136.885599795    40.4043   5  23   2.8421   3.2449   6.8848   2.0687  -2.9358  -2.6386   0.00    0.0
2024/07/20 09:57:13.000   35.164584152  136.885587975    40.7107   5  22   3.1775   3.2759   7.8131   2.2183  -3.2073  -3.4941   0.00    0.0
2024/07/20 09:57:14.000   35.164664765  136.885577693    41.7312   5  21   3.1784   2.9018   7.8745   1.8992  -2.2508  -3.3636   0.00    0.0
2024/07/20 09:57:15.000   35.164725292  136.885552597    51.2407   5  20   4.0456   3.1170  11.8408  -1.6421   4.1598  -5.7571   0.00    0.0
2024/07/20 09:57:16.000   35.164845164  136.885563365    40.4347   5  17   4.9613   4.3678  15.2286  -3.1727   6.3049  -7.8239   0.00    0.0
2024/07/20 09:57:17.000   35.164937425  136.885546023    39.8719   5  16   5.1361   4.7235  15.4381  -3.5300   6.6589  -8.0363   0.00    0.0
2024/07/20 09:57:18.000   35.165033788  136.885531165    38.5885   5  16   5.1546   5.3970  17.5920  -3.8108   8.2278  -8.5760   0.00    0.0
2024/07/20 09:57:19.000   35.165068753  136.885535035    60.0107   5  19   3.5515   3.2668  10.5539  -1.2005   3.6648  -4.7646   0.00    0.0
2024/07/20 09:57:20.000   35.165228296  136.885514250    38.8177   5  17   5.0060   5.2818  17.3020  -3.6546   8.1535  -8.3642   0.00    0.0
2024/07/20 09:57:21.000   35.165348427  136.885484403    30.4032   5  17   3.8927   4.1810  11.8810   0.3333   4.0429  -5.4874   0.00    0.0
2024/07/20 09:57:22.000   35.165448712  136.885476071    31.5392   5  17   3.8923   4.1811  11.8813   0.3283   4.0444  -5.4869   0.00    0.0
2024/07/20 09:57:23.000   35.165545680  136.885480647    35.5726   5  17   5.0530   5.2618  17.5167  -3.6495   8.1207  -8.4812   0.00    0.0
2024/07/20 09:57:24.000   35.165648633  136.885467741    36.0870   5  16   5.0523   5.5691  17.5133  -3.6693   8.1317  -8.4791   0.00    0.0
2024/07/20 09:57:25.000   35.165741304  136.885477807    40.3430   5  17   4.9028   5.4644  17.0938  -3.8423   8.3775  -8.2002   0.00    0.0
2024/07/20 09:57:26.000   35.165847732  136.885463976    41.2195   5  16   5.0003   5.5891  17.2848  -3.6872   8.1931  -8.3522   0.00    0.0
2024/07/20 09:57:27.000   35.165888653  136.885579272    75.2409   5  18   4.2057   3.5188  12.2975  -1.3627   3.7938  -6.0753   0.00    0.0
2024/07/20 09:57:28.000   35.165941443  136.885736136   128.6494   5  17   5.0695   4.2289  15.7609  -2.7135   5.7813  -8.1151   0.00    0.0
2024/07/20 09:57:29.000   35.166181744  136.885406112    35.6850   5  13   6.0615   7.0254  18.7571  -4.7218   8.8620  -9.6879   0.00    0.0
2024/07/20 09:57:30.000   35.166271322  136.885365037    39.2448   5  15   5.1627   5.9462  17.5608  -3.9661   8.3244  -8.5640   0.00    0.0
2024/07/20 09:57:31.000   35.166253438  136.885535450    85.2418   5  18   3.5740   3.1567  10.3616   1.2807   1.7680  -4.6646   0.00    0.0
2024/07/20 09:57:32.000   35.166476365  136.885347714    36.4150   5  14   5.7391   7.4993  19.7687  -4.7221   9.9731  -9.8333   0.00    0.0
2024/07/20 09:57:33.000   35.166571181  136.885306932    36.1505   5  15   5.6941   7.2148  19.9393  -4.7842   9.8660  -9.8318   0.00    0.0
2024/07/20 09:57:34.000   35.166662939  136.885318020    36.7522   5  14   5.6952   7.7009  19.9670  -4.7371   9.7120  -9.8387   0.00    0.0
2024/07/20 09:57:35.000   35.166756464  136.885313516    34.5323   5  15   4.0361   5.4726  12.7715   1.2425   2.7811  -5.9191   0.00    0.0
2024/07/20 09:57:36.000   35.166761119  136.885420864    59.8313   5  16   3.5938   4.1154  11.4553   2.0331  -1.6061  -4.9600   0.00    0.0
2024/07/20 09:57:37.000   35.166893627  136.885289516    34.1321   5  14   4.0945   5.8194  13.0799   1.7044   1.4802  -6.0812   0.00    0.0
2024/07/20 09:57:38.000   35.166924218  136.885239830    40.4131   5  15   3.8335   4.9288  12.2582  -1.2444   4.0410  -5.5149   0.00    0.0
2024/07/20 09:57:39.000   35.166965303  136.885274196    37.0166   5  15   4.0922   4.6066  13.0281   1.5878   2.5213  -6.0697   0.00    0.0
2024/07/20 09:57:40.000   35.166914692  136.885298117    63.1852   5  17   3.3320   3.6748   9.8574   1.6105   2.3216  -4.0999   0.00    0.0
2024/07/20 09:57:41.000   35.166933518  136.885302044    60.7713   5  18   3.1927   3.4289   9.5424   1.1544   2.9441  -3.8012   0.00    0.0
2024/07/20 09:57:42.000   35.166997038  136.885258250    38.4378   5  17   3.7319   4.0035  11.6294  -1.1400   4.4249  -5.2224   0.00    0.0
2024/07/20 09:57:43.000   35.166998206  136.885257007    38.3743   5  17   3.7316   4.0038  11.6295  -1.1410   4.4262  -5.2218   0.00    0.0
2024/07/20 09:57:44.000   35.166967005  136.885375100    59.9138   5  18   3.6647   3.3064  10.7546   0.5284   3.0997  -4.9150   0.00    0.0
2024/07/20 09:57:45.000   35.166968824  136.885371669    59.2834   5  18   3.6643   3.3065  10.7541   0.5272   3.1007  -4.9141   0.00    0.0
2024/07/20 09:57:46.000   35.166968597  136.885354260    58.1613   5  19   3.5178   3.1774  10.2666  -0.8126   3.5423  -4.5675   0.00    0.0
2024/07/20 09:57:47.000   35.166993815  136.885479470    82.0819   5  19   3.6052   3.3533  10.5903  -1.4827   3.9192  -4.9217   0.00    0.0
2024/07/20 09:57:48.000   35.167019154  136.885255681    37.4950   5  18   3.6063   3.8440  11.2969  -1.5444   4.7705  -4.9603   0.00    0.0
2024/07/20 09:57:49.000   35.166995592  136.885424952    69.0401   5  19   3.5176   3.1596  10.2026  -0.8052   3.4849  -4.5551   0.00    0.0
2024/07/20 09:57:50.000   35.167074495  136.885264841    36.4100   5  18   3.6057   3.8448  11.2970  -1.5454   4.7726  -4.9592   0.00    0.0
2024/07/20 09:57:51.000   35.167105169  136.885273224    37.9697   5  18   3.2981   3.4522   9.6705   1.4129   2.8144  -3.9859   0.00    0.0
2024/07/20 09:57:52.000   35.167139335  136.885267339    37.5167   5  17   3.2995   3.5814   9.7753   1.3769   3.0475  -4.0040   0.00    0.0
2024/07/20 09:57:53.000   35.167121426  136.885256319    54.3664   5  19   2.9044   3.0275   8.4242   1.0178   2.7448  -3.0221   0.00    0.0
2024/07/20 09:57:54.000   35.167195015  136.885288319    40.1300   5  17   3.4387   3.4391   9.8436   1.8891   0.5961  -4.3008   0.00    0.0
2024/07/20 09:57:55.000   35.167215894  136.885290611    39.3918   5  18   3.0103   3.3957   7.8458   2.1141  -1.6938  -2.9351   0.00    0.0
2024/07/20 09:57:56.000   35.167227941  136.885284709    38.7722   5  16   3.1244   4.4177   8.0696   2.6121  -2.6110  -3.1103   0.00    0.0
2024/07/20 09:57:57.000   35.167238071  136.885293744    38.2421   5  17   3.0689   3.8533   7.8467   2.3576  -1.6552  -2.9271   0.00    0.0
2024/07/20 09:57:58.000   35.167237656  136.885261711    37.4977   5  18   3.0605   3.7246   7.8425   2.3099  -1.7299  -2.9365   0.00    0.0
2024/07/20 09:57:59.000   35.167202168  136.885171238    46.7123   5  19   2.9265   3.2573   7.5212   1.9282   1.0135  -2.5749   0.00    0.0
2024/07/20 09:58:00.000   35.167226992  136.885199820    41.0105   5  20   2.6671   3.0799   7.0328   1.5623   1.9644  -1.8481   0.00    0.0
2024/07/20 09:58:01.000   35.167223213  136.885199049    41.7591   5  20   2.6670   3.0799   7.0330   1.5622   1.9655  -1.8472   0.00    0.0
2024/07/20 09:58:02.000   35.167217626  136.885190953    42.6670   5  20   2.6668   3.0799   7.0332   1.5620   1.9666  -1.8464   0.00    0.0
2024/07/20 09:58:03.000   35.167241198  136.885276561    35.5973   5  19   2.7162   3.3957   7.1671   1.7825   1.3791  -2.0290   0.00    0.0
2024/07/20 09:58:04.000   35.167237799  136.885266235    36.7074   5  19   2.7160   3.3956   7.1673   1.7822   1.3806  -2.0282   0.00    0.0
2024/07/20 09:58:05.000   35.167236296  136.885259859    37.8647   5  19   2.7158   3.3955   7.1676   1.7819   1.3822  -2.0274   0.00    0.0
2024/07/20 09:58:06.000   35.167236047  136.885255726    38.6591   5  19   2.7156   3.3954   7.1679   1.7816   1.3837  -2.0265   0.00    0.0
2024/07/20 09:58:07.000   35.167236433  136.885266056    38.7690   5  18   2.7209   3.7325   7.2437   1.8549   0.5489  -2.0697   0.00    0.0
2024/07/20 09:58:08.000   35.167236518  136.885264498    39.4769   5  18   2.7207   3.7323   7.2440   1.8545   0.5525  -2.0688   0.00    0.0
2024/07/20 09:58:09.000   35.167236397  136.885264506    39.6740   5  18   2.7205   3.7320   7.2444   1.8541   0.5561  -2.0680   0.00    0.0
2024/07/20 09:58:10.000   35.167236368  136.885263487    39.7189   5  18   2.7203   3.7317   7.2447   1.8537   0.5596  -2.0671   0.00    0.0
2024/07/20 09:58:11.000   35.167207263  136.885146837    49.0803   5  19   2.6661   3.2990   7.0703   1.5792   1.7537  -1.8483   0.00    0.0
2024/07/20 09:58:12.000   35.167206289  136.885140582    49.3633   5  19   2.6659   3.2989   7.0705   1.5790   1.7548  -1.8474   0.00    0.0
2024/07/20 09:58:13.000   35.167241181  136.885297249    36.9454   5  19   2.7143   3.3945   7.1699   1.7797   1.3944  -2.0208   0.00    0.0
2024/07/20 09:58:14.000   35.167241434  136.885290238    37.3133   5  19   2.7141   3.3944   7.1701   1.7794   1.3960  -2.0200   0.00    0.0
2024/07/20 09:58:15.000   35.167240083  136.885264444    38.8431   5  18   2.7193   3.7305   7.2464   1.8517   0.5771  -2.0629   0.00    0.0
2024/07/20 09:58:16.000   35.167240979  136.885264165    38.8253   5  18   2.7191   3.7302   7.2467   1.8513   0.5806  -2.0620   0.00    0.0
2024/07/20 09:58:17.000   35.167241620  136.885263498    38.7743   5  18   2.7189   3.7300   7.2471   1.8509   0.5840  -2.0612   0.00    0.0
2024/07/20 09:58:18.000   35.167241315  136.885262255    38.5366   5  18   2.7187   3.7297   7.2474   1.8505   0.5874  -2.0603   0.00    0.0
2024/07/20 09:58:19.000   35.167240433  136.885262386    38.5427   5  18   2.7185   3.7295   7.2478   1.8502   0.5907  -2.0595   0.00    0.0
2024/07/20 09:58:20.000   35.167239110  136.885262094    38.5175   5  18   2.7183   3.7292   7.2481   1.8498   0.5941  -2.0586   0.00    0.0
2024/07/20 09:58:21.000   35.167264271  136.885409034    43.4672   5  19   2.6962   3.4043   7.2271   1.7017  -0.6996  -2.1038   0.00    0.0
2024/07/20 09:58:22.000   35.167263035  136.885409633    43.4763   5  19   2.6960   3.4041   7.2274   1.7014  -0.6973  -2.1030   0.00    0.0
2024/07/20 09:58:23.000   35.167262025  136.885411278    43.4904   5  19   2.6958   3.4039   7.2277   1.7011  -0.6950  -2.1022   0.00    0.0
2024/07/20 09:58:24.000   35.167263815  136.885438874    44.5021   5  18   2.6969   3.5096   7.2356   1.7216  -0.4414  -2.0948   0.00    0.0
2024/07/20 09:58:25.000   35.167263626  136.885437887    44.4459   5  18   2.6968   3.5094   7.2359   1.7212  -0.4379  -2.0940   0.00    0.0
2024/07/20 09:58:26.000   35.167263570  136.885436986    44.3962   5  18   2.6966   3.5092   7.2362   1.7208  -0.4343  -2.0932   0.00    0.0
2024/07/20 09:58:27.000   35.167263768  136.885435973    44.3896   5  18   2.6964   3.5090   7.2365   1.7205  -0.4306  -2.0923   0.00    0.0
2024/07/20 09:58:28.000   35.167263308  136.885430399    44.8463   5  19   2.6912   3.1322   7.1635   1.6427   1.2011  -2.0507   0.00    0.0
2024/07/20 09:58:29.000   35.167263801  136.885434503    44.7572   5  19   2.6911   3.1321   7.1637   1.6425   1.2025  -2.0500   0.00    0.0
2024/07/20 09:58:30.000   35.167262764  136.885433656    44.9329   5  19   2.6909   3.1320   7.1640   1.6423   1.2040  -2.0492   0.00    0.0
2024/07/20 09:58:31.000   35.167262768  136.885431558    45.1448   5  19   2.6907   3.1319   7.1642   1.6420   1.2054  -2.0484   0.00    0.0
2024/07/20 09:58:32.000   35.167263222  136.885429536    45.2080   5  19   2.6906   3.1318   7.1644   1.6418   1.2069  -2.0477   0.00    0.0
2024/07/20 09:58:33.000   35.167263392  136.885428443    45.4353   5  19   2.6904   3.1317   7.1647   1.6415   1.2083  -2.0469   0.00    0.0
2024/07/20 09:58:34.000   35.167263998  136.885428302    45.3256   5  19   2.6903   3.1316   7.1649   1.6413   1.2098  -2.0461   0.00    0.0
2024/07/20 09:58:35.000   35.167265082  136.885431275    44.7641   5  19   2.6901   3.1315   7.1652   1.6411   1.2112  -2.0453   0.00    0.0
2024/07/20 09:58:36.000   35.167265549  136.885433045    44.3252   5  19   2.6899   3.1314   7.1654   1.6408   1.2127  -2.0446   0.00    0.0
2024/07/20 09:58:37.000   35.167265617  136.885435048    44.0091   5  19   2.6898   3.1313   7.1656   1.6406   1.2141  -2.0438   0.00    0.0
2024/07/20 09:58:38.000   35.167264800  136.885436508    43.7832   5  19   2.6896   3.1312   7.1659   1.6404   1.2156  -2.0430   0.00    0.0
2024/07/20 09:58:39.000   35.167263884  136.885434465    43.7815   5  19   2.6895   3.1312   7.1661   1.6401   1.2170  -2.0423   0.00    0.0
2024/07/20 09:58:40.000   35.167262496  136.885429407    43.7177   5  19   2.6893   3.1311   7.1663   1.6399   1.2184  -2.0415   0.00    0.0
2024/07/20 09:58:41.000   35.167261420  136.885425002    43.8618   5  19   2.6891   3.1310   7.1666   1.6397   1.2199  -2.0407   0.00    0.0
2024/07/20 09:58:42.000   35.167261139  136.885419015    44.0678   5  19   2.6890   3.1309   7.1668   1.6394   1.2213  -2.0399   0.00    0.0
2024/07/20 09:58:43.000   35.167260688  136.885413991    44.4148   5  19   2.6888   3.1308   7.1671   1.6392   1.2228  -2.0392   0.00    0.0
2024/07/20 09:58:44.000   35.167260695  136.885408089    45.0602   5  19   2.6887   3.1307   7.1673   1.6389   1.2242  -2.0384   0.00    0.0
2024/07/20 09:58:45.000   35.167261152  136.885402284    45.3707   5  19   2.6885   3.1306   7.1675   1.6387   1.2256  -2.0376   0.00    0.0
2024/07/20 09:58:46.000   35.167235777  136.885257091    40.4117   5  18   2.7101   3.4978   7.1978   1.7944   1.5908  -1.9808   0.00    0.0
2024/07/20 09:58:47.000   35.167236641  136.885261103    40.8097   5  18   2.7099   3.4976   7.1981   1.7940   1.5921  -1.9800   0.00    0.0
2024/07/20 09:58:48.000   35.167263824  136.885408987    46.3592   5  19   2.6880   3.1303   7.1682   1.6380   1.2299  -2.0353   0.00    0.0
2024/07/20 09:58:49.000   35.167262544  136.885382999    44.3712   5  20   2.6872   3.0536   7.1545   1.6251   1.0994  -2.0411   0.00    0.0
2024/07/20 09:58:50.000   35.167263190  136.885387814    44.3815   5  20   2.6870   3.0535   7.1548   1.6249   1.1010  -2.0403   0.00    0.0
2024/07/20 09:58:51.000   35.167263898  136.885389922    44.3571   5  20   2.6869   3.0534   7.1550   1.6247   1.1025  -2.0395   0.00    0.0
2024/07/20 09:58:52.000   35.167263624  136.885392056    44.5157   5  20   2.6867   3.0533   7.1553   1.6245   1.1041  -2.0387   0.00    0.0
2024/07/20 09:58:53.000   35.167264950  136.885417809    46.4777   5  19   2.6872   3.1299   7.1694   1.6368   1.2370  -2.0314   0.00    0.0
2024/07/20 09:58:54.000   35.167261611  136.885389504    45.2638   5  20   2.6864   3.0532   7.1557   1.6241   1.1073  -2.0371   0.00    0.0
2024/07/20 09:58:55.000   35.167261384  136.885409256    46.8472   5  19   2.6869   3.1297   7.1699   1.6364   1.2399  -2.0298   0.00    0.0
2024/07/20 09:58:56.000   35.167259810  136.885406449    47.0307   5  19   2.6868   3.1296   7.1702   1.6361   1.2413  -2.0291   0.00    0.0
2024/07/20 09:58:57.000   35.167258703  136.885404770    46.9922   5  19   2.6866   3.1295   7.1704   1.6359   1.2427  -2.0283   0.00    0.0
2024/07/20 09:58:58.000   35.167258405  136.885407648    46.5274   5  19   2.6865   3.1294   7.1706   1.6357   1.2441  -2.0275   0.00    0.0
2024/07/20 09:58:59.000   35.167258675  136.885415689    46.2347   5  19   2.6863   3.1293   7.1709   1.6354   1.2455  -2.0267   0.00    0.0
2024/07/20 09:59:00.000   35.167259838  136.885428465    44.3288   5  19   2.6896   3.3963   7.2387   1.6898  -0.6045  -2.0715   0.00    0.0
2024/07/20 09:59:01.000   35.167260728  136.885430591    44.5780   5  19   2.6895   3.3961   7.2390   1.6895  -0.6018  -2.0707   0.00    0.0
2024/07/20 09:59:02.000   35.167261921  136.885424387    44.9182   5  20   2.6852   3.0525   7.1576   1.6226   1.1199  -2.0307   0.00    0.0
2024/07/20 09:59:03.000   35.167237543  136.885285272    39.1926   5  19   2.7053   3.3885   7.1840   1.7658   1.4690  -1.9795   0.00    0.0
2024/07/20 09:59:04.000   35.167239546  136.885294087    39.7766   5  18   2.7068   3.4955   7.2030   1.7884   1.6150  -1.9662   0.00    0.0
2024/07/20 09:59:05.000   35.167240213  136.885290704    39.7456   5  18   2.7066   3.4953   7.2033   1.7880   1.6163  -1.9654   0.00    0.0
2024/07/20 09:59:06.000   35.167240311  136.885286895    39.9123   5  18   2.7064   3.4952   7.2036   1.7877   1.6177  -1.9646   0.00    0.0
2024/07/20 09:59:07.000   35.167240095  136.885281733    40.1120   5  18   2.7062   3.4951   7.2039   1.7874   1.6190  -1.9638   0.00    0.0
2024/07/20 09:59:08.000   35.167239168  136.885277213    40.3100   5  18   2.7060   3.4950   7.2042   1.7870   1.6203  -1.9630   0.00    0.0
2024/07/20 09:59:09.000   35.167238390  136.885275725    40.2431   5  18   2.7058   3.4948   7.2045   1.7867   1.6217  -1.9621   0.00    0.0
2024/07/20 09:59:10.000   35.167238240  136.885277949    39.9197   5  18   2.7056   3.4947   7.2048   1.7864   1.6230  -1.9613   0.00    0.0
2024/07/20 09:59:11.000   35.167237899  136.885283438    39.4220   5  18   2.7055   3.4946   7.2050   1.7861   1.6243  -1.9605   0.00    0.0
2024/07/20 09:59:12.000   35.167237304  136.885288491    38.8593   5  17   2.7104   3.8578   7.2771   1.8604   0.9882  -2.0025   0.00    0.0
2024/07/20 09:59:13.000   35.167237045  136.885287426    38.5741   5  17   2.7102   3.8576   7.2774   1.8599   0.9902  -2.0017   0.00    0.0
2024/07/20 09:59:14.000   35.167237628  136.885295454    37.7316   5  18   2.7049   3.4942   7.2059   1.7851   1.6283  -1.9581   0.00    0.0
2024/07/20 09:59:15.000   35.167238044  136.885297031    37.6035   5  18   2.7047   3.4941   7.2062   1.7847   1.6296  -1.9573   0.00    0.0
2024/07/20 09:59:16.000   35.167238428  136.885296533    37.5146   5  18   2.7045   3.4940   7.2065   1.7844   1.6310  -1.9564   0.00    0.0
2024/07/20 09:59:17.000   35.167238839  136.885295294    37.7866   5  18   2.7044   3.4938   7.2068   1.7841   1.6323  -1.9556   0.00    0.0
2024/07/20 09:59:18.000   35.167240227  136.885292127    38.1485   5  18   2.7042   3.4937   7.2071   1.7837   1.6336  -1.9548   0.00    0.0
2024/07/20 09:59:19.000   35.167241257  136.885290847    38.6546   5  18   2.7040   3.4936   7.2074   1.7834   1.6349  -1.9540   0.00    0.0
2024/07/20 09:59:20.000   35.167240523  136.885289724    39.0059   5  18   2.7038   3.4935   7.2077   1.7831   1.6362  -1.9532   0.00    0.0
2024/07/20 09:59:21.000   35.167239990  136.885288758    39.1045   5  18   2.7036   3.4933   7.2080   1.7828   1.6376  -1.9524   0.00    0.0
2024/07/20 09:59:22.000   35.167238740  136.885289179    39.0040   5  18   2.7034   3.4932   7.2083   1.7824   1.6389  -1.9515   0.00    0.0
2024/07/20 09:59:23.000   35.167239115  136.885289419    38.9121   5  18   2.7032   3.4931   7.2085   1.7821   1.6402  -1.9507   0.00    0.0
2024/07/20 09:59:24.000   35.167239574  136.885292288    38.6926   5  18   2.7031   3.4930   7.2088   1.7818   1.6415  -1.9499   0.00    0.0
2024/07/20 09:59:25.000   35.167236912  136.885250939    36.2060   5  19   2.7014   3.3859   7.1903   1.7598   1.5008  -1.9610   0.00    0.0
2024/07/20 09:59:26.000   35.167242673  136.885297461    38.3843   5  18   2.7027   3.4927   7.2094   1.7811   1.6441  -1.9483   0.00    0.0
2024/07/20 09:59:27.000   35.167274706  136.885442171    44.8062   5  19   2.6819   3.1268   7.1776   1.6289   1.2844  -2.0047   0.00    0.0
2024/07/20 09:59:28.000   35.167288714  136.885427492    45.1028   5  19   2.6818   3.1267   7.1778   1.6287   1.2858  -2.0039   0.00    0.0
2024/07/20 09:59:29.000   35.167307763  136.885376304    42.7297   5  20   2.6812   3.0503   7.1641   1.6176   1.1616  -2.0088   0.00    0.0
2024/07/20 09:59:30.000   35.167338483  136.885369902    48.1158   5  20   2.6651   3.0022   7.1281   1.5469   1.5493  -1.9387   0.00    0.0
2024/07/20 09:59:31.000   35.167377352  136.885269109    40.4446   5  18   2.9035   3.3194   8.2489   1.4460   2.1247  -2.9056   0.00    0.0
2024/07/20 09:59:32.000   35.167464726  136.885437265    56.6923   5  17   3.2136   3.4844   8.2643   2.0572  -0.3158  -2.9494   0.00    0.0
2024/07/20 09:59:33.000   35.167520810  136.885244495    39.9760   5  15   3.3753   4.2027   8.4705   2.4986   1.6249  -2.9212   0.00    0.0
2024/07/20 09:59:34.000   35.167620686  136.885245022    36.9787   5  14   4.3914   5.8477  10.3869   3.8628  -1.1115  -4.6533   0.00    0.0
2024/07/20 09:59:35.000   35.167722992  136.885205491    33.4732   5  14   5.0368   5.1827  12.6102   2.9341   2.3248  -6.4489   0.00    0.0
2024/07/20 09:59:36.000   35.167802548  136.885149466    37.7258   5  16   3.9544   4.2582  11.9935   0.6169   4.1137  -5.5292   0.00    0.0
2024/07/20 09:59:37.000   35.167894458  136.885113965    38.5414   5  16   3.8785   4.5506  12.1119   0.8096   3.7546  -5.5187   0.00    0.0
2024/07/20 09:59:38.000   35.168019921  136.885104927    36.2538   5  16   3.9523   3.9253  11.6140  -0.3995   3.4330  -5.5952   0.00    0.0
2024/07/20 09:59:39.000   35.168080310  136.885149014    60.5545   5  16   3.4519   3.9527   8.3171   2.2755  -1.1108  -3.6652   0.00    0.0
2024/07/20 09:59:40.000   35.168192712  136.885070510    51.5915   5  17   3.3824   3.9197  10.0140   1.7243   2.6824  -4.1674   0.00    0.0
2024/07/20 09:59:41.000   35.168338285  136.884941713    36.7263   5  13   4.3638   5.1142  12.1967   0.8547   4.4087  -5.5793   0.00    0.0
2024/07/20 09:59:42.000   35.168445323  136.884906814    36.1818   5  15   3.7380   4.5986  12.0750  -1.4076   4.8184  -5.3297   0.00    0.0
2024/07/20 09:59:43.000   35.168564378  136.884890913    38.0948   5  14   4.0106   4.6129  11.7480  -1.1225   5.3017  -5.0435   0.00    0.0
2024/07/20 09:59:44.000   35.168440987  136.885183067   127.5895   5  13   5.2367   4.2440  15.3470  -1.8807   4.5613  -8.0048   0.00    0.0
2024/07/20 09:59:45.000   35.168599669  136.885189741   114.8016   5  12   4.6047   5.1262  14.2304  -1.5701   3.4417  -6.9813   0.00    0.0
2024/07/20 09:59:46.000   35.168871432  136.884744178    44.5625   5  11   7.5234   8.0345  24.5250  -5.8298  11.6503 -12.8923   0.00    0.0
2024/07/20 09:59:47.000   35.169004364  136.884701489    36.0051   5  12   4.0067   6.1260  12.4642  -0.9434   5.0931  -5.6315   0.00    0.0
2024/07/20 09:59:48.000   35.169110129  136.884695174    35.6248   5  10   4.1959   8.8698  12.9064  -1.9288   4.9348  -5.9577   0.00    0.0
2024/07/20 09:59:49.000   35.169212508  136.884679324    35.5135   5  12   4.0672   6.4501  12.5646  -1.7963   3.8053  -5.7293   0.00    0.0
2024/07/20 09:59:50.000   35.169306202  136.884586318    41.0753   5  15   3.6973   4.5944  11.6195  -2.1137   5.1526  -5.0473   0.00    0.0
2024/07/20 09:59:51.000   35.169405598  136.884632838    37.6944   5  14   3.8809   4.8601  11.9075  -1.9179   4.4186  -5.2963   0.00    0.0
2024/07/20 09:59:52.000   35.169474005  136.884565620    49.8222   5  11   6.0915   7.7852  21.8291  -5.1272  11.5876 -10.0020   0.00    0.0
