% program   : RTKPOST demo5 b34k
% inp file  : C:\Users\Taro\Dropbox\github\gtsam_gnss\examples\data\rover_1Hz.obs
% inp file  : C:\Users\Taro\Dropbox\github\gtsam_gnss\examples\data\base.nav
% obs start : 2024/07/20 09:52:30.0 GPST (week2323 553950.0s)
% obs end   : 2024/07/20 10:11:30.0 GPST (week2323 555090.0s)
% pos mode  : Single
% elev mask : 15.0 deg
% ionos opt : Broadcast
% tropo opt : Saastamoinen
% ephemeris : Broadcast
% navi sys  : GPS GLONASS Galileo QZSS BDS
%
% (lat/lon/height=WGS84/ellipsoidal,Q=1:fix,2:float,3:sbas,4:dgps,5:single,6:ppp,ns=# of satellites)
%  GPST                  latitude(deg) longitude(deg)  height(m)   Q  ns   sdn(m)   sde(m)   sdu(m)  sdne(m)  sdeu(m)  sdun(m) age(s)  ratio    vn(m/s)    ve(m/s)    vu(m/s)      sdvn     sdve     sdvu    sdvne    sdveu    sdvun
2024/07/20 09:52:30.000   35.165318215  136.881460576    40.2116   5  30   2.4722   2.0416   5.7511   1.1704  -1.5828  -1.9013   0.00    0.0   -0.00043   -0.00591   -0.00560   0.07203  0.06902  0.18856  0.03081 -0.06236 -0.02625
2024/07/20 09:52:31.000   35.165318721  136.881460600    40.0539   5  30   2.4720   2.0415   5.7511   1.1703  -1.5824  -1.9008   0.00    0.0   -0.00824    0.00310    0.01195   0.07203  0.06902  0.18856  0.03080 -0.06236 -0.02623
2024/07/20 09:52:32.000   35.165319102  136.881460244    39.9719   5  30   2.4719   2.0414   5.7510   1.1702  -1.5821  -1.9003   0.00    0.0    0.00961    0.00452   -0.00183   0.07203  0.06901  0.18857  0.03080 -0.06235 -0.02622
2024/07/20 09:52:33.000   35.165319195  136.881460409    39.8520   5  30   2.4718   2.0414   5.7509   1.1702  -1.5817  -1.8999   0.00    0.0    0.01209   -0.00376   -0.01092   0.07203  0.06901  0.18858  0.03080 -0.06234 -0.02620
2024/07/20 09:52:34.000   35.165319791  136.881460088    39.6641   5  30   2.4717   2.0413   5.7509   1.1701  -1.5814  -1.8994   0.00    0.0    0.01450    0.00567    0.00829   0.07204  0.06901  0.18859  0.03079 -0.06233 -0.02618
2024/07/20 09:52:35.000   35.165320436  136.881459756    39.5127   5  30   2.4716   2.0412   5.7508   1.1700  -1.5810  -1.8990   0.00    0.0    0.01557    0.00360    0.00946   0.07204  0.06900  0.18860  0.03079 -0.06232 -0.02616
2024/07/20 09:52:36.000   35.165320287  136.881459335    39.5328   5  30   2.4715   2.0411   5.7507   1.1700  -1.5806  -1.8985   0.00    0.0    0.00102   -0.00248    0.01676   0.07204  0.06900  0.18861  0.03079 -0.06231 -0.02614
2024/07/20 09:52:37.000   35.165319943  136.881458859    39.5980   5  30   2.4714   2.0410   5.7507   1.1699  -1.5803  -1.8981   0.00    0.0    0.00114    0.00687   -0.00677   0.07204  0.06900  0.18862  0.03078 -0.06230 -0.02612
2024/07/20 09:52:38.000   35.165319312  136.881458423    39.7112   5  30   2.4713   2.0410   5.7506   1.1699  -1.5799  -1.8976   0.00    0.0    0.01046    0.00421   -0.01293   0.07204  0.06900  0.18863  0.03078 -0.06229 -0.02610
2024/07/20 09:52:39.000   35.165318666  136.881458469    39.7469   5  30   2.4712   2.0409   5.7506   1.1698  -1.5795  -1.8972   0.00    0.0    0.00329   -0.00321    0.01629   0.07204  0.06899  0.18863  0.03078 -0.06228 -0.02609
2024/07/20 09:52:40.000   35.165318618  136.881458671    39.6560   5  30   2.4711   2.0408   5.7505   1.1697  -1.5792  -1.8967   0.00    0.0    0.01434    0.00308    0.01099   0.07205  0.06899  0.18864  0.03077 -0.06227 -0.02607
2024/07/20 09:52:41.000   35.165315911  136.881460205    40.4961   5  29   2.5290   2.0502   5.8848   1.1234  -1.4988  -2.0662   0.00    0.0   -0.00664   -0.00175   -0.00443   0.07499  0.06906  0.18889  0.02967 -0.06202 -0.02959
2024/07/20 09:52:42.000   35.165315937  136.881460423    40.6044   5  29   2.5289   2.0501   5.8846   1.1233  -1.4984  -2.0657   0.00    0.0    0.00701    0.00594    0.00207   0.07499  0.06906  0.18890  0.02966 -0.06201 -0.02957
2024/07/20 09:52:43.000   35.165316257  136.881460412    40.5618   5  29   2.5287   2.0501   5.8844   1.1233  -1.4981  -2.0652   0.00    0.0   -0.00322    0.00090    0.01918   0.07499  0.06905  0.18891  0.02966 -0.06200 -0.02955
2024/07/20 09:52:44.000   35.165316248  136.881460175    40.5256   5  29   2.5286   2.0500   5.8843   1.1232  -1.4977  -2.0646   0.00    0.0    0.00018    0.00197    0.00070   0.07499  0.06905  0.18891  0.02966 -0.06199 -0.02952
2024/07/20 09:52:45.000   35.165316537  136.881459844    40.6113   5  29   2.5284   2.0499   5.8841   1.1232  -1.4974  -2.0641   0.00    0.0    0.00848    0.00254    0.00589   0.07499  0.06905  0.18892  0.02965 -0.06198 -0.02950
2024/07/20 09:52:46.000   35.165316498  136.881460105    40.5512   5  29   2.5283   2.0498   5.8839   1.1231  -1.4970  -2.0636   0.00    0.0   -0.00034    0.00375    0.00105   0.07499  0.06905  0.18893  0.02965 -0.06197 -0.02948
2024/07/20 09:52:47.000   35.165316051  136.881460308    40.6279   5  29   2.5282   2.0498   5.8837   1.1230  -1.4966  -2.0630   0.00    0.0    0.00176   -0.00079   -0.01075   0.07500  0.06904  0.18894  0.02964 -0.06197 -0.02946
2024/07/20 09:52:48.000   35.165315697  136.881460289    40.6878   5  29   2.5280   2.0497   5.8836   1.1230  -1.4963  -2.0625   0.00    0.0    0.01032   -0.00555    0.00097   0.07500  0.06904  0.18894  0.02964 -0.06196 -0.02943
2024/07/20 09:52:49.000   35.165315677  136.881460511    40.6722   5  29   2.5279   2.0496   5.8834   1.1229  -1.4959  -2.0620   0.00    0.0   -0.01448    0.00003    0.02219   0.07500  0.06904  0.18895  0.02964 -0.06195 -0.02941
2024/07/20 09:52:50.000   35.165315318  136.881460289    40.7570   5  29   2.5277   2.0496   5.8832   1.1229  -1.4955  -2.0614   0.00    0.0   -0.00739    0.00249    0.00300   0.07500  0.06903  0.18896  0.02963 -0.06194 -0.02939
2024/07/20 09:52:51.000   35.165315427  136.881459975    40.8811   5  29   2.5276   2.0495   5.8831   1.1228  -1.4952  -2.0609   0.00    0.0   -0.00048   -0.00482   -0.00301   0.07500  0.06903  0.18897  0.02963 -0.06193 -0.02937
2024/07/20 09:52:52.000   35.165316064  136.881460289    40.8680   5  29   2.5275   2.0494   5.8829   1.1227  -1.4948  -2.0604   0.00    0.0    0.02108    0.00294    0.01757   0.07500  0.06903  0.18897  0.02962 -0.06192 -0.02935
2024/07/20 09:52:53.000   35.165316331  136.881460191    40.9149   5  29   2.5273   2.0493   5.8827   1.1227  -1.4945  -2.0598   0.00    0.0    0.01180    0.00562   -0.01779   0.07501  0.06903  0.18898  0.02962 -0.06191 -0.02932
2024/07/20 09:52:54.000   35.165315976  136.881460422    40.8507   5  29   2.5272   2.0493   5.8826   1.1226  -1.4941  -2.0593   0.00    0.0    0.00890   -0.00210   -0.00119   0.07501  0.06902  0.18899  0.02962 -0.06190 -0.02930
2024/07/20 09:52:55.000   35.165315028  136.881460157    40.7955   5  29   2.5270   2.0492   5.8824   1.1226  -1.4937  -2.0588   0.00    0.0    0.00498    0.00272    0.01141   0.07501  0.06902  0.18900  0.02961 -0.06189 -0.02928
2024/07/20 09:52:56.000   35.165315063  136.881460386    40.8792   5  29   2.5269   2.0491   5.8822   1.1225  -1.4934  -2.0582   0.00    0.0    0.00035    0.00344    0.01779   0.07501  0.06902  0.18901  0.02961 -0.06188 -0.02926
2024/07/20 09:52:57.000   35.165314658  136.881460290    40.9213   5  29   2.5268   2.0490   5.8821   1.1224  -1.4930  -2.0577   0.00    0.0   -0.00496    0.07179    0.02319   0.07501  0.06902  0.18901  0.02960 -0.06188 -0.02923
2024/07/20 09:52:58.000   35.165315011  136.881461046    40.9271   5  29   2.5266   2.0490   5.8819   1.1224  -1.4926  -2.0572   0.00    0.0   -0.00586    0.25449    0.03471   0.07501  0.06901  0.18902  0.02960 -0.06187 -0.02921
2024/07/20 09:52:59.000   35.165319339  136.881462285    39.9936   5  30   2.4690   2.0394   5.7492   1.1685  -1.5723  -1.8880   0.00    0.0    0.01595    0.44926    0.00695   0.07207  0.06893  0.18881  0.03070 -0.06209 -0.02571
2024/07/20 09:53:00.000   35.165319349  136.881467655    39.9265   5  30   2.4689   2.0393   5.7492   1.1684  -1.5719  -1.8876   0.00    0.0   -0.05002    0.46455   -0.04628   0.07208  0.06893  0.18881  0.03070 -0.06209 -0.02569
2024/07/20 09:53:01.000   35.165319192  136.881472855    39.5003   5  30   2.4688   2.0392   5.7491   1.1684  -1.5715  -1.8871   0.00    0.0   -0.07292    0.59539   -0.01732   0.07208  0.06893  0.18882  0.03069 -0.06208 -0.02567
2024/07/20 09:53:02.000   35.165318841  136.881479380    39.2913   5  30   2.4687   2.0391   5.7490   1.1683  -1.5712  -1.8867   0.00    0.0   -0.04755    0.68503    0.02064   0.07208  0.06893  0.18883  0.03069 -0.06207 -0.02565
2024/07/20 09:53:03.000   35.165318229  136.881482899    39.1499   5  30   2.4686   2.0390   5.7490   1.1682  -1.5708  -1.8862   0.00    0.0    0.02338    0.08672    0.03535   0.07208  0.06892  0.18884  0.03069 -0.06206 -0.02563
2024/07/20 09:53:04.000   35.165317766  136.881483256    38.9426   5  29   2.4704   2.0682   5.9528   1.1827  -1.3896  -1.8451   0.00    0.0    0.01896    0.00349   -0.02693   0.07295  0.07084  0.19174  0.03354 -0.05750 -0.01686
2024/07/20 09:53:05.000   35.165317110  136.881480943    39.0222   5  30   2.4683   2.0389   5.7488   1.1681  -1.5701  -1.8853   0.00    0.0   -0.19195   -0.42851    0.06525   0.07208  0.06892  0.18886  0.03068 -0.06204 -0.02559
2024/07/20 09:53:06.000   35.165313609  136.881472284    38.7746   5  30   2.4682   2.0388   5.7488   1.1681  -1.5697  -1.8848   0.00    0.0   -0.64120   -1.07818    0.05818   0.07209  0.06891  0.18886  0.03068 -0.06203 -0.02558
2024/07/20 09:53:07.000   35.165306983  136.881458495    38.7259   5  29   2.4701   2.0680   5.9527   1.1825  -1.3882  -1.8435   0.00    0.0   -0.73578   -1.52355    0.03855   0.07295  0.07083  0.19177  0.03353 -0.05747 -0.01675
2024/07/20 09:53:08.000   35.165299557  136.881440577    38.7349   5  30   2.4680   2.0387   5.7486   1.1679  -1.5690  -1.8839   0.00    0.0   -0.73215   -1.68554    0.01790   0.07209  0.06891  0.18888  0.03067 -0.06201 -0.02554
2024/07/20 09:53:09.000   35.165294773  136.881421809    38.8891   5  30   2.4679   2.0386   5.7486   1.1679  -1.5686  -1.8834   0.00    0.0   -0.48591   -1.68375    0.00645   0.07209  0.06891  0.18889  0.03067 -0.06200 -0.02552
2024/07/20 09:53:10.000   35.165291612  136.881402950    39.1088   5  30   2.4678   2.0385   5.7485   1.1678  -1.5682  -1.8830   0.00    0.0   -0.22360   -1.60095    0.04803   0.07209  0.06890  0.18890  0.03066 -0.06199 -0.02550
2024/07/20 09:53:11.000   35.165290979  136.881386085    39.0928   5  30   2.4677   2.0384   5.7484   1.1677  -1.5678  -1.8825   0.00    0.0   -0.08790   -1.52840   -0.02739   0.07209  0.06890  0.18891  0.03066 -0.06198 -0.02548
2024/07/20 09:53:12.000   35.165291456  136.881361431    43.6172   5  31   2.4669   2.0031   5.4545   1.1769  -1.3310  -1.9095   0.00    0.0    0.10494   -1.32000    0.05533   0.07206  0.06361  0.17178  0.03165 -0.04195 -0.02885
2024/07/20 09:53:13.000   35.165292424  136.881356851    39.8464   5  30   2.4675   2.0383   5.7483   1.1676  -1.5671  -1.8816   0.00    0.0    0.19150   -1.37959   -0.05396   0.07210  0.06889  0.18892  0.03065 -0.06196 -0.02544
2024/07/20 09:53:14.000   35.165293992  136.881338422    39.8533   5  30   2.4674   2.0382   5.7482   1.1675  -1.5667  -1.8811   0.00    0.0   -0.04091   -2.07873   -0.05271   0.07210  0.06889  0.18893  0.03065 -0.06195 -0.02542
2024/07/20 09:53:15.000   35.165294153  136.881305934    42.5428   5  31   2.4666   2.0029   5.4541   1.1768  -1.3299  -1.9084   0.00    0.0   -0.13702   -2.71612    0.03852   0.07206  0.06361  0.17178  0.03165 -0.04191 -0.02883
2024/07/20 09:53:16.000   35.165292060  136.881276456    42.2482   5  31   2.4665   2.0028   5.4540   1.1767  -1.3295  -1.9080   0.00    0.0   -0.14960   -2.63440   -0.01557   0.07206  0.06361  0.17178  0.03164 -0.04189 -0.02882
2024/07/20 09:53:17.000   35.165290056  136.881247831    41.9399   5  31   2.4664   2.0028   5.4539   1.1767  -1.3291  -1.9076   0.00    0.0   -0.14085   -2.56597    0.01004   0.07206  0.06361  0.17179  0.03164 -0.04188 -0.02881
2024/07/20 09:53:18.000   35.165288800  136.881222274    41.4859   5  31   2.4663   2.0027   5.4537   1.1767  -1.3288  -1.9072   0.00    0.0   -0.08204   -1.98666   -0.00086   0.07206  0.06361  0.17179  0.03164 -0.04186 -0.02880
2024/07/20 09:53:19.000   35.165288032  136.881202597    41.4494   5  31   2.4661   2.0027   5.4536   1.1766  -1.3284  -1.9068   0.00    0.0   -0.01772   -1.48577    0.00822   0.07207  0.06360  0.17179  0.03164 -0.04185 -0.02879
2024/07/20 09:53:20.000   35.165288349  136.881187683    41.2564   5  31   2.4660   2.0026   5.4535   1.1766  -1.3280  -1.9064   0.00    0.0   -0.02485   -1.15852    0.00398   0.07207  0.06360  0.17179  0.03164 -0.04183 -0.02879
2024/07/20 09:53:21.000   35.165287818  136.881175883    41.1619   5  31   2.4659   2.0026   5.4534   1.1765  -1.3276  -1.9061   0.00    0.0   -0.00297   -1.03620    0.02237   0.07207  0.06360  0.17180  0.03164 -0.04182 -0.02878
2024/07/20 09:53:22.000   35.165288162  136.881164444    40.7457   5  31   2.4658   2.0025   5.4532   1.1765  -1.3273  -1.9057   0.00    0.0    0.00579   -1.14027   -0.00639   0.07207  0.06360  0.17180  0.03164 -0.04180 -0.02877
2024/07/20 09:53:23.000   35.165289445  136.881152149    40.3042   5  31   2.4657   2.0025   5.4531   1.1764  -1.3269  -1.9053   0.00    0.0    0.07739   -1.30893   -0.00812   0.07207  0.06360  0.17180  0.03164 -0.04179 -0.02876
2024/07/20 09:53:24.000   35.165290007  136.881138271    40.1728   5  31   2.4656   2.0024   5.4530   1.1764  -1.3265  -1.9049   0.00    0.0    0.03619   -1.48357    0.09035   0.07207  0.06360  0.17180  0.03163 -0.04177 -0.02875
2024/07/20 09:53:25.000   35.165290967  136.881121763    40.2983   5  32   2.4199   1.9748   5.3254   1.1080  -1.4651  -2.0446   0.00    0.0    0.08234   -1.57706    0.02892   0.06964  0.06283  0.16573  0.02861 -0.04678 -0.04082
2024/07/20 09:53:26.000   35.165290657  136.881106277    40.5732   5  31   2.4654   2.0023   5.4527   1.1763  -1.3257  -1.9041   0.00    0.0    0.00325   -1.19519    0.01696   0.07208  0.06359  0.17181  0.03163 -0.04174 -0.02873
2024/07/20 09:53:27.000   35.165291769  136.881095349    40.6878   5  31   2.4653   2.0022   5.4526   1.1763  -1.3254  -1.9038   0.00    0.0   -0.03003   -0.88105   -0.07700   0.07208  0.06359  0.17181  0.03163 -0.04172 -0.02873
2024/07/20 09:53:28.000   35.165290379  136.881083388    40.6835   5  32   2.4647   2.0011   5.3291   1.1749  -1.3534  -1.9178   0.00    0.0   -0.21195   -1.18264   -0.05437   0.06904  0.06348  0.16588  0.03038 -0.04368 -0.04184
2024/07/20 09:53:29.000   35.165286462  136.881068895    40.4171   5  30   2.4669   2.0362   5.6361   1.1912  -1.1067  -1.8667   0.00    0.0   -0.49180   -1.17618    0.00854   0.07294  0.06589  0.17456  0.03453 -0.03473 -0.02192
2024/07/20 09:53:30.000   35.165280564  136.881058490    40.4807   5  31   2.4662   2.0340   5.4941   1.1890  -1.1581  -1.8847   0.00    0.0   -0.47025   -0.59201   -0.04873   0.06952  0.06560  0.16766  0.03253 -0.03874 -0.03938
2024/07/20 09:53:31.000   35.165276186  136.881054013    40.7692   5  31   2.4661   2.0340   5.4940   1.1890  -1.1577  -1.8843   0.00    0.0   -0.27180   -0.26205   -0.08737   0.06953  0.06560  0.16766  0.03252 -0.03873 -0.03938
2024/07/20 09:53:32.000   35.165274412  136.881053011    40.9412   5  31   2.4660   2.0339   5.4938   1.1889  -1.1572  -1.8839   0.00    0.0    0.00439    0.00767    0.00787   0.06953  0.06560  0.16766  0.03252 -0.03871 -0.03938
2024/07/20 09:53:33.000   35.165274290  136.881053640    41.0167   5  31   2.4659   2.0339   5.4937   1.1889  -1.1568  -1.8835   0.00    0.0    0.00219    0.00780    0.00637   0.06953  0.06560  0.16767  0.03252 -0.03869 -0.03937
2024/07/20 09:53:34.000   35.165274899  136.881053097    41.0559   5  31   2.4657   2.0338   5.4935   1.1889  -1.1564  -1.8831   0.00    0.0   -0.00385    0.00300   -0.00646   0.06953  0.06560  0.16767  0.03252 -0.03868 -0.03937
2024/07/20 09:53:35.000   35.165274247  136.881052989    41.2260   5  31   2.4656   2.0338   5.4934   1.1888  -1.1559  -1.8827   0.00    0.0   -0.00534   -0.00341   -0.00447   0.06953  0.06560  0.16767  0.03252 -0.03866 -0.03937
2024/07/20 09:53:36.000   35.165274650  136.881053223    41.0290   5  31   2.4655   2.0338   5.4933   1.1888  -1.1555  -1.8823   0.00    0.0    0.00380   -0.00234    0.01025   0.06953  0.06560  0.16767  0.03251 -0.03864 -0.03936
2024/07/20 09:53:37.000   35.165274697  136.881053525    41.1474   5  31   2.4654   2.0337   5.4931   1.1888  -1.1550  -1.8819   0.00    0.0    0.00300   -0.00213    0.00608   0.06953  0.06560  0.16767  0.03251 -0.03863 -0.03936
2024/07/20 09:53:38.000   35.165274680  136.881053402    41.2691   5  31   2.4653   2.0337   5.4930   1.1887  -1.1546  -1.8816   0.00    0.0    0.00488    0.00366    0.00261   0.06953  0.06560  0.16767  0.03251 -0.03861 -0.03936
2024/07/20 09:53:39.000   35.165275185  136.881053518    41.2711   5  31   2.4652   2.0336   5.4928   1.1887  -1.1541  -1.8812   0.00    0.0    0.00522    0.00290   -0.01080   0.06953  0.06559  0.16767  0.03251 -0.03859 -0.03935
2024/07/20 09:53:40.000   35.165275578  136.881054186    41.2568   5  31   2.4651   2.0336   5.4927   1.1887  -1.1537  -1.8808   0.00    0.0   -0.00164   -0.00118   -0.01691   0.06954  0.06559  0.16767  0.03251 -0.03858 -0.03935
2024/07/20 09:53:41.000   35.165275945  136.881054164    41.1543   5  31   2.4650   2.0335   5.4926   1.1886  -1.1532  -1.8804   0.00    0.0    0.00773    0.00204   -0.00074   0.06954  0.06559  0.16767  0.03251 -0.03856 -0.03935
2024/07/20 09:53:42.000   35.165275801  136.881054166    41.2668   5  31   2.4649   2.0335   5.4924   1.1886  -1.1528  -1.8800   0.00    0.0    0.00943   -0.00072    0.00756   0.06954  0.06559  0.16767  0.03250 -0.03854 -0.03934
2024/07/20 09:53:43.000   35.165276042  136.881054054    41.1892   5  31   2.4648   2.0334   5.4923   1.1885  -1.1523  -1.8796   0.00    0.0    0.00226    0.00801   -0.00628   0.06954  0.06559  0.16767  0.03250 -0.03852 -0.03934
2024/07/20 09:53:44.000   35.165275776  136.881053125    41.1573   5  31   2.4646   2.0334   5.4921   1.1885  -1.1519  -1.8792   0.00    0.0   -0.19338   -0.16402    0.01393   0.06954  0.06559  0.16767  0.03250 -0.03851 -0.03934
2024/07/20 09:53:45.000   35.165272631  136.881049254    41.0786   5  31   2.4645   2.0333   5.4920   1.1885  -1.1514  -1.8788   0.00    0.0   -0.62988   -0.43674    0.04239   0.06954  0.06559  0.16767  0.03250 -0.03849 -0.03933
2024/07/20 09:53:46.000   35.165265725  136.881043818    40.6711   5  31   2.4644   2.0333   5.4918   1.1884  -1.1510  -1.8784   0.00    0.0   -0.92194   -0.41820    0.12647   0.06954  0.06559  0.16767  0.03250 -0.03847 -0.03933
2024/07/20 09:53:47.000   35.165252735  136.881041323    41.4300   5  29   2.7556   2.0580   5.5623   1.1859  -1.0330  -1.9968   0.00    0.0   -1.26217   -0.38626   -0.18319   0.07515  0.06571  0.16977  0.03131 -0.03783 -0.03557
2024/07/20 09:53:48.000   35.165242394  136.881039985    39.3830   5  30   2.4651   2.0641   5.7840   1.1787  -1.4032  -1.8461   0.00    0.0   -1.13115   -0.17700   -0.05084   0.06955  0.07069  0.18219  0.03277 -0.05796 -0.03994
2024/07/20 09:53:49.000   35.165230634  136.881037700    39.2665   5  29   2.4657   2.0651   5.9518   1.1803  -1.3688  -1.8222   0.00    0.0   -1.13746   -0.01804    0.01369   0.07302  0.07071  0.19221  0.03340 -0.05695 -0.01523
2024/07/20 09:53:50.000   35.165227829  136.881033693    40.7596   5  28   2.7287   2.0848   6.0333   1.1772  -0.5208  -2.0848   0.00    0.0   -0.21398    0.02994   -0.16972   0.07741  0.06766  0.18729  0.03304 -0.01501 -0.01207
2024/07/20 09:53:51.000   35.165222998  136.881039066    40.2478   5  24   2.8071   2.3948   6.9793   1.3242   1.2083  -1.8641   0.00    0.0    0.00322   -0.00180    0.00493   0.08346  0.07867  0.22125  0.03072 -0.00670  0.01437
2024/07/20 09:53:52.000   35.165223724  136.881039301    40.6717   5  24   2.8070   2.3947   6.9791   1.3242   1.2092  -1.8633   0.00    0.0   -0.00667    0.03145    0.01816   0.08346  0.07867  0.22126  0.03071 -0.00654  0.01444
2024/07/20 09:53:53.000   35.165223650  136.881039582    41.0771   5  24   2.8069   2.3947   6.9789   1.3242   1.2100  -1.8624   0.00    0.0    0.00514    0.02152   -0.00325   0.08347  0.07867  0.22127  0.03071 -0.00637  0.01450
2024/07/20 09:53:54.000   35.165223129  136.881038974    41.1314   5  24   2.8068   2.3947   6.9787   1.3242   1.2108  -1.8615   0.00    0.0    0.03668    0.00890   -0.02918   0.08347  0.07867  0.22128  0.03071 -0.00620  0.01457
2024/07/20 09:53:55.000   35.165222594  136.881038715    41.1114   5  24   2.8067   2.3946   6.9786   1.3242   1.2116  -1.8607   0.00    0.0   -0.00089    0.02001    0.05051   0.08347  0.07866  0.22129  0.03071 -0.00602  0.01463
2024/07/20 09:53:56.000   35.165222334  136.881037840    41.0254   5  24   2.8066   2.3946   6.9784   1.3242   1.2124  -1.8598   0.00    0.0   -0.02653   -0.01707    0.00765   0.08348  0.07866  0.22129  0.03071 -0.00584  0.01470
2024/07/20 09:53:57.000   35.165222656  136.881037965    41.0425   5  24   2.8065   2.3945   6.9782   1.3242   1.2132  -1.8590   0.00    0.0    0.00521    0.02750    0.01751   0.08348  0.07866  0.22130  0.03071 -0.00565  0.01476
2024/07/20 09:53:58.000   35.165222339  136.881038863    41.1703   5  24   2.8064   2.3945   6.9780   1.3242   1.2140  -1.8581   0.00    0.0   -0.00019    0.00700    0.01574   0.08348  0.07866  0.22131  0.03070 -0.00545  0.01482
2024/07/20 09:53:59.000   35.165222402  136.881039395    41.3652   5  24   2.8063   2.3945   6.9779   1.3241   1.2148  -1.8572   0.00    0.0   -0.00086   -0.01028    0.00903   0.08349  0.07866  0.22132  0.03070 -0.00525  0.01489
2024/07/20 09:54:00.000   35.165222490  136.881039517    41.6073   5  24   2.8062   2.3944   6.9777   1.3241   1.2156  -1.8564   0.00    0.0   -0.00751    0.00230   -0.02522   0.08349  0.07865  0.22133  0.03070 -0.00504  0.01495
2024/07/20 09:54:01.000   35.165222079  136.881039805    41.7391   5  24   2.8061   2.3944   6.9775   1.3241   1.2164  -1.8555   0.00    0.0    0.00295   -0.00929   -0.01798   0.08349  0.07865  0.22134  0.03070 -0.00481  0.01501
2024/07/20 09:54:02.000   35.165220547  136.881042248    42.6746   5  24   3.2678   2.3697   6.3500   1.7133  -0.2439  -1.0646   0.00    0.0   -0.66635   -0.00092   -0.05534   0.09047  0.07540  0.21577  0.03474 -0.04344  0.06066
2024/07/20 09:54:03.000   35.165213730  136.881038143    40.5700   5  24   3.0180   2.2213   6.9287   1.1839   0.8384  -1.8515   0.00    0.0   -1.09934   -0.00694   -0.09285   0.08848  0.07431  0.22366  0.02313 -0.04073  0.03991
2024/07/20 09:54:04.000   35.165203408  136.881037945    39.7348   5  24   3.0179   2.2213   6.9284   1.1839   0.8390  -1.8510   0.00    0.0   -1.28231    0.05383   -0.16243   0.08848  0.07431  0.22365  0.02313 -0.04071  0.03991
2024/07/20 09:54:05.000   35.165193083  136.881038640    39.1522   5  25   3.2957   2.0913   6.8785   1.2418  -1.0185  -2.4864   0.00    0.0   -0.99985   -0.13437    0.04693   0.08945  0.07137  0.21136  0.02675 -0.05549  0.04415
2024/07/20 09:54:06.000   35.165186032  136.881035958    38.0151   5  26   2.9209   2.1009   6.1998   1.3358  -1.3457  -1.1882   0.00    0.0   -1.43250   -0.34057   -0.10951   0.08946  0.07134  0.21270  0.02641 -0.06247  0.06672
2024/07/20 09:54:07.000   35.165170388  136.881031094    38.8324   5  24   2.9940   2.1514   6.4993   1.2584  -0.9654  -1.5699   0.00    0.0   -1.33851   -0.76761   -0.03393   0.09399  0.07258  0.22251  0.02062 -0.05553  0.06072
2024/07/20 09:54:08.000   35.165159515  136.881019629    38.4326   5  24   3.2848   2.2121   6.1207   1.0479  -1.3298  -0.9182   0.00    0.0   -1.04397   -1.41060   -0.00945   0.08556  0.07485  0.19916  0.00636 -0.05765  0.01534
2024/07/20 09:54:09.000   35.165152808  136.881004362    38.6048   5  25   2.8510   2.1739   6.0740   1.0415  -1.5803  -1.6407   0.00    0.0   -0.77695   -1.39474    0.06215   0.08655  0.07232  0.20220  0.02281 -0.06180  0.04485
2024/07/20 09:54:10.000   35.165141807  136.880991392    40.1148   5  24   2.7201   2.2511   6.7079   0.7350  -0.9109  -2.3435   0.00    0.0   -0.48533   -1.46063    0.10856   0.08394  0.07368  0.20539  0.02043 -0.04980 -0.03124
2024/07/20 09:54:11.000   35.165136224  136.880973163    40.2262   5  23   2.8835   2.2561   6.9436   0.8275  -0.7465  -1.9421   0.00    0.0   -0.24445   -1.75881   -0.02001   0.09117  0.07378  0.21245  0.01664 -0.05189  0.03094
2024/07/20 09:54:12.000   35.165141782  136.880946872    39.6891   5  24   3.1759   2.2020   6.6733   1.0214  -0.8844  -1.2833   0.00    0.0    0.15298   -2.40110    0.10924   0.09020  0.07289  0.21949  0.02452 -0.05199  0.05281
2024/07/20 09:54:13.000   35.165145256  136.880918456    39.2144   5  24   3.1758   2.2020   6.6732   1.0215  -0.8835  -1.2828   0.00    0.0    0.42121   -3.07441   -0.06229   0.09020  0.07289  0.21949  0.02452 -0.05197  0.05281
2024/07/20 09:54:14.000   35.165153392  136.880885830    38.7947   5  23   3.4531   2.3515   6.7345   1.4704  -0.1739  -0.6432   0.00    0.0    0.64543   -3.20475   -0.02187   0.09414  0.07597  0.22896  0.03432 -0.03610  0.06742
2024/07/20 09:54:15.000   35.165156043  136.880853007    39.2742   5  24   3.2624   2.3094   6.8985   1.5878   0.9259  -1.4838   0.00    0.0    0.76365   -2.92655    0.10727   0.09025  0.07562  0.22825  0.03560 -0.03132  0.06026
2024/07/20 09:54:16.000   35.165164669  136.880817447    38.3890   5  25   3.1892   2.2915   6.6880   1.6487   0.6123  -1.0180   0.00    0.0    0.94558   -3.00781    0.23729   0.08701  0.07533  0.22781  0.03776 -0.03275  0.06304
2024/07/20 09:54:17.000   35.165168728  136.880784436    39.5518   5  23   3.2628   2.3289   6.9758   1.5927   0.7411  -1.4991   0.00    0.0    0.96711   -3.18485   -0.14198   0.09753  0.07584  0.23626  0.03247 -0.03644  0.07672
2024/07/20 09:54:18.000   35.165183079  136.880749481    41.8767   5  24   3.1825   2.4163   6.6750   1.6792   1.0929  -1.1634   0.00    0.0    0.59207   -3.01235    0.34409   0.08277  0.07775  0.21913  0.02617 -0.02437 -0.01922
2024/07/20 09:54:19.000   35.165184786  136.880716860    39.6431   5  24   2.9012   2.3613   6.7184   1.4648   0.6152  -1.9177   0.00    0.0    0.22648   -2.90898    1.00534   0.08401  0.07831  0.23811  0.03062  0.01869  0.03843
2024/07/20 09:54:20.000   35.165178233  136.880686426    38.9811   5  24   2.7278   2.4153   6.9598   1.4641  -1.0870  -2.4722   0.00    0.0   -0.92252   -2.73370   -0.16711   0.08365  0.08362  0.24150  0.04152 -0.04809 -0.05690
2024/07/20 09:54:21.000   35.165163469  136.880656609    38.7211   5  25   2.7228   2.3864   6.8753   1.4432  -0.8809  -2.4359   0.00    0.0   -1.72898   -2.40917   -0.11508   0.08156  0.08330  0.23912  0.04310 -0.04543 -0.06220
2024/07/20 09:54:22.000   35.165138124  136.880636443    40.6550   5  25   2.6700   2.5115   6.8333   1.0257   1.5319  -2.4411   0.00    0.0   -2.93777   -1.84935    0.15587   0.08038  0.08309  0.22042 -0.01164  0.04260 -0.07497
2024/07/20 09:54:23.000   35.165106718  136.880620166    40.2435   5  25   2.6893   2.4037   6.6389   1.0173   0.7857  -2.3337   0.00    0.0   -3.95278   -1.16740   -0.03384   0.07829  0.07911  0.20951  0.01838 -0.00582 -0.06454
2024/07/20 09:54:24.000   35.165067533  136.880609586    39.9336   5  25   2.6891   2.4036   6.6387   1.0173   0.7870  -2.3330   0.00    0.0   -4.90282   -1.04862   -0.05338   0.07829  0.07911  0.20951  0.01837 -0.00561 -0.06453
2024/07/20 09:54:25.000   35.165023824  136.880595857    38.6703   5  24   2.6435   2.6937   6.6003   1.3501  -1.4734  -2.2275   0.00    0.0   -5.65373   -0.94480   -0.12084   0.07542  0.09126  0.21173  0.03565 -0.05106 -0.06263
2024/07/20 09:54:26.000   35.164969575  136.880585696    38.4607   5  24   2.6434   2.6936   6.6004   1.3499  -1.4727  -2.2269   0.00    0.0   -6.40524   -0.99040   -0.09803   0.07542  0.09126  0.21175  0.03564 -0.05104 -0.06262
2024/07/20 09:54:27.000   35.164908434  136.880575097    38.7517   5  25   2.6270   2.5749   6.5702   1.4329  -1.2917  -2.2674   0.00    0.0   -7.06497   -1.05928   -0.17202   0.07469  0.08947  0.21176  0.03819 -0.05111 -0.06257
2024/07/20 09:54:28.000   35.164842880  136.880562930    38.1277   5  23   2.8907   2.9127   7.3228   1.7795  -1.8964  -2.9792   0.00    0.0   -7.70750   -1.08119   -0.06202   0.08735  0.10579  0.24738  0.05585 -0.08185 -0.09837
2024/07/20 09:54:29.000   35.164769913  136.880552226    38.2699   5  23   2.8905   2.9126   7.3229   1.7793  -1.8957  -2.9788   0.00    0.0   -8.14811   -1.06094   -0.12894   0.08735  0.10579  0.24740  0.05584 -0.08184 -0.09837
2024/07/20 09:54:30.000   35.164697878  136.880541756    37.0836   5  22   3.3752   2.9134   8.9002   1.7413  -1.7903  -4.2056   0.00    0.0   -8.60981   -0.97028   -0.07083   0.09941  0.10689  0.28651  0.04887 -0.06689 -0.12857
2024/07/20 09:54:31.000   35.164619224  136.880531570    36.7886   5  22   3.3750   2.9132   8.9001   1.7409  -1.7893  -4.2052   0.00    0.0   -8.79166   -0.87065   -0.13984   0.09941  0.10689  0.28653  0.04885 -0.06686 -0.12857
2024/07/20 09:54:32.000   35.164537675  136.880519948    36.8528   5  23   3.2558   2.6564   8.4845   1.4028   0.1242  -3.9106   0.00    0.0   -8.99397   -0.73884   -0.09598   0.09632  0.09620  0.27718  0.03520 -0.03291 -0.12142
2024/07/20 09:54:33.000   35.164447639  136.880513866    39.1009   5  22   3.4375   2.7693   9.3158   0.2525   2.4961  -4.4157   0.00    0.0   -9.15713   -0.48729    0.05701   0.11004  0.09879  0.29855 -0.03892  0.07587 -0.14393
2024/07/20 09:54:34.000   35.164369869  136.880503191    37.0816   5  24   2.8912   2.6344   7.6652   0.8102   2.0295  -3.1154   0.00    0.0   -9.26868   -0.31523    0.01444   0.08197  0.09178  0.23936 -0.02615  0.06567 -0.08758
2024/07/20 09:54:35.000   35.164284918  136.880499935    37.1546   5  24   2.8910   2.6345   7.6650   0.8099   2.0302  -3.1148   0.00    0.0   -9.50722   -0.18241   -0.04373   0.08197  0.09178  0.23937 -0.02616  0.06570 -0.08757
2024/07/20 09:54:36.000   35.164198351  136.880498294    37.4321   5  24   2.8908   2.6345   7.6647   0.8097   2.0309  -3.1142   0.00    0.0   -9.46710    0.01623    0.12035   0.08197  0.09178  0.23937 -0.02617  0.06573 -0.08757
2024/07/20 09:54:37.000   35.164111353  136.880500195    37.7682   5  24   2.9612   2.3751   7.5474   0.2041   1.5975  -3.2768   0.00    0.0   -9.40710    0.21784    0.00905   0.08433  0.08322  0.23053 -0.02417  0.03963 -0.08989
2024/07/20 09:54:38.000   35.164026304  136.880501818    38.0138   5  26   2.8586   2.2634   7.4410   0.6194   1.2904  -3.1611   0.00    0.0   -9.46462    0.10794    0.03796   0.08180  0.07946  0.22699 -0.02158  0.03925 -0.08527
2024/07/20 09:54:39.000   35.163939523  136.880502040    38.2471   5  26   2.8584   2.2634   7.4405   0.6192   1.2910  -3.1606   0.00    0.0   -9.33501    0.10693   -0.11879   0.08180  0.07946  0.22698 -0.02159  0.03927 -0.08526
2024/07/20 09:54:40.000   35.163853356  136.880503067    38.5368   5  26   2.8582   2.2634   7.4401   0.6191   1.2916  -3.1600   0.00    0.0   -9.38723    0.06591   -0.28981   0.08180  0.07946  0.22698 -0.02160  0.03929 -0.08526
2024/07/20 09:54:41.000   35.163766272  136.880504147    38.9557   5  27   2.8356   2.1869   6.8677   0.7692   0.0161  -2.9933   0.00    0.0   -9.53349    0.03220   -0.27869   0.08155  0.07456  0.21623 -0.01709 -0.01872 -0.08263
2024/07/20 09:54:42.000   35.163681094  136.880503882    38.2883   5  26   2.8578   2.2634   7.4392   0.6187   1.2928  -3.1589   0.00    0.0   -9.64695    0.07563   -0.21375   0.08180  0.07946  0.22697 -0.02162  0.03933 -0.08524
2024/07/20 09:54:43.000   35.163594184  136.880506424    38.0982   5  27   2.8045   2.1562   7.2228   0.8720   0.6694  -2.9998   0.00    0.0   -9.77747    0.13030   -0.17121   0.07751  0.07512  0.21451  0.01445 -0.01928 -0.07299
2024/07/20 09:54:44.000   35.163508977  136.880504488    36.5923   5  28   2.7459   2.1048   6.9000   1.0131  -0.7407  -2.7894   0.00    0.0   -9.91765    0.14971   -0.26665   0.07374  0.07259  0.19728  0.02590 -0.04472 -0.05755
2024/07/20 09:54:45.000   35.163414415  136.880508236    37.8841   5  28   2.5201   2.1420   6.3438   1.0309  -0.6315  -2.1788   0.00    0.0   -9.94217    0.08939   -0.47311   0.07280  0.07349  0.20220  0.02496 -0.03852 -0.05847
2024/07/20 09:54:46.000   35.163324938  136.880509993    37.3198   5  29   2.5200   2.0959   6.0563   1.0304  -1.1098  -2.1793   0.00    0.0  -10.00671    0.11613   -0.55201   0.07271  0.07065  0.19747  0.02347 -0.04860 -0.05976
2024/07/20 09:54:47.000   35.163233649  136.880511308    36.1122   5  28   2.5199   2.1420   6.3436   1.0308  -0.6291  -2.1779   0.00    0.0  -10.19226   -0.06513   -0.82679   0.07280  0.07348  0.20221  0.02494 -0.03848 -0.05845
2024/07/20 09:54:48.000   35.163138577  136.880511704    35.5274   5  29   2.4970   2.0986   6.1646   1.0987  -1.0177  -2.0582   0.00    0.0  -10.50464    0.00329   -0.66269   0.07069  0.07177  0.19057  0.02995 -0.05045 -0.04731
2024/07/20 09:54:49.000   35.163041956  136.880512259    35.0201   5  29   2.4969   2.0985   6.1645   1.0987  -1.0170  -2.0577   0.00    0.0  -10.90728    0.29977   -0.49897   0.07069  0.07177  0.19057  0.02994 -0.05044 -0.04730
2024/07/20 09:54:50.000   35.162945977  136.880523971    34.0223   5  26   2.7430   2.7522   6.7122   1.7585  -2.3329  -2.6639   0.00    0.0  -11.13564    0.96602   -0.56305   0.08092  0.09833  0.21992  0.05833 -0.09862 -0.08087
2024/07/20 09:54:51.000   35.162843094  136.880537379    34.7334   5  22   3.1662   3.2330   7.4331   1.7866  -2.8452  -2.5128   0.00    0.0  -11.19947    1.63185   -0.38802   0.09027  0.10771  0.23792  0.05826 -0.11292 -0.07761
2024/07/20 09:54:52.000   35.162738208  136.880564536    33.6759   5  19   3.0325   4.6000   8.1756   1.3635  -4.4421  -2.8501   0.00    0.0  -11.38426    2.58652   -0.69517   0.09465  0.12855  0.23343  0.06912 -0.11779 -0.09837
2024/07/20 09:54:53.000   35.162630881  136.880599921    32.6332   5  14   6.3542   6.3763  11.5565  -4.4871  -7.1756   5.2613   0.00    0.0  -11.47650    3.16530   -0.23338   0.12250  0.17013  0.32218  0.07520 -0.17450 -0.07665
2024/07/20 09:55:10.000   35.161007509  136.881708182    42.7188   5   6 688.5115 270.5285 406.0863 -430.7454 326.8803 -525.7920   0.00    0.0   -3.98172    5.24622    1.31300   0.31579  0.55439  1.93263  0.16815 -0.96136 -0.46605
2024/07/20 09:55:12.000   35.161149270  136.881709638    37.0920   5  13   5.2122   2.9107  12.3417   1.9043   1.4761  -5.0750   0.00    0.0    0.79806    6.32998   -0.31124   0.15794  0.10135  0.33917  0.05953  0.06743 -0.10942
2024/07/20 09:55:13.000   35.161223610  136.881766563    29.4574   5  17   5.3591   3.0546  13.2826  -1.8986   3.5902  -7.4241   0.00    0.0    1.70584    6.77590    0.12410   0.14784  0.09866  0.35394 -0.04864  0.08880 -0.17863
2024/07/20 09:55:14.000   35.161245934  136.881846481    30.4770   5  15   6.6498   3.6080  17.4338   1.9259  -2.7033  -9.9637   0.00    0.0    2.73126    7.14085   -0.05063   0.19106  0.13134  0.46097  0.08929 -0.13206 -0.26008
2024/07/20 09:55:15.000   35.161269553  136.881925528    31.7698   5  11   9.5240   4.3048  14.1583  -4.5348   4.9509  -9.2367   0.00    0.0    3.76901    7.53612   -2.26923   0.26980  0.11621  0.33452 -0.12653  0.06113 -0.18057
2024/07/20 09:55:16.000   35.161308330  136.881982440    24.7227   5   9  16.6648  14.6457  47.4140 -14.9273  25.7029 -27.4091   0.00    0.0    2.53743    8.48720    2.41286   0.27768  0.30215  0.78223 -0.24455  0.44927 -0.42051
2024/07/20 09:55:17.000   35.161310267  136.882077402    34.8161   5   8  23.6592  16.0124  56.2252 -13.5237  22.1770 -36.0809   0.00    0.0    2.39738    8.71531    0.91237   0.44692  0.34208  1.13320 -0.31816  0.51621 -0.69444
2024/07/20 09:55:18.000   35.161286242  136.882205405    44.3798   5   8 684.3222 267.5611 402.1942 -427.0534 323.4275 -521.6128   0.00    0.0    2.24051    8.60267    3.16905   0.32701  0.19571  1.01523 -0.11926 -0.13323 -0.46745
2024/07/20 09:55:21.000   35.161456338  136.882544507    42.4769   5  10   9.7770   3.8679  18.2172  -1.6134   5.4224 -10.9443   0.00    0.0    2.96472    9.62687    0.38192   0.25378  0.14302  0.54951  0.03412  0.22148 -0.14177
2024/07/20 09:55:22.000   35.161412771  136.882656536    51.6269   5  12   6.2129   3.5567  12.3107   2.9804   2.9982  -4.2888   0.00    0.0    2.98394    9.59010   -0.33654   0.17007  0.12529  0.43498  0.07994  0.16136 -0.03610
2024/07/20 09:55:23.000   35.161440835  136.882760544    49.1798   5  14   4.9650   3.1385  11.8218   1.6330   2.7128  -4.5553   0.00    0.0    3.47460    9.32285    1.34191   0.15231  0.10370  0.40519  0.03378  0.12227 -0.11373
2024/07/20 09:55:24.000   35.161482755  136.882851643    45.6543   5  12   7.0381   3.8226  13.6702   3.6262   4.2838   1.0824   0.00    0.0    3.10671    9.43081    0.60083   0.15985  0.11922  0.47902  0.06240  0.16701  0.06696
2024/07/20 09:55:25.000   35.161548739  136.882942661    36.5683   5  15   5.2446   2.8145  11.5782   0.7952   2.1628  -5.9288   0.00    0.0    3.08445    9.46131    0.80994   0.16961  0.09555  0.34102 -0.01562  0.07419 -0.16474
2024/07/20 09:55:26.000   35.161576153  136.883043575    36.7284   5  17   4.4577   2.7707  10.6185  -0.5807   2.5964  -4.8063   0.00    0.0    3.23162    9.28355    0.54294   0.14028  0.09378  0.33302 -0.04432  0.07920 -0.14910
2024/07/20 09:55:27.000   35.161604856  136.883142157    37.5235   5  16   4.5037   3.2224  10.6296  -0.3297   2.7527  -4.7369   0.00    0.0    3.14625    9.42621    0.72777   0.13952  0.09787  0.33059 -0.04982  0.07499 -0.15314
2024/07/20 09:55:28.000   35.161614449  136.883265453    48.5752   5  19   4.2875   3.0362   9.1115  -0.5966   2.1673  -5.0121   0.00    0.0    3.17362    9.29703    0.49575   0.13315  0.09688  0.29543 -0.04879  0.06489 -0.16178
2024/07/20 09:55:29.000   35.161662973  136.883348769    38.0322   5  16   4.7138   3.7136  10.2669  -1.2633   2.2298  -5.7288   0.00    0.0    3.22120    9.18278    0.59730   0.14726  0.10896  0.34923 -0.03398  0.03841 -0.18455
2024/07/20 09:55:30.000   35.161695705  136.883453594    37.9293   5  13   6.3897   5.0639  13.9112   3.3328  -4.9312  -8.4978   0.00    0.0    2.67956    8.68638    1.36043   0.19339  0.14734  0.42904  0.09949 -0.15201 -0.25046
2024/07/20 09:55:31.000   35.161746324  136.883511219    34.7884   5   9  10.5402  12.5153  35.0468 -10.5278  20.2169 -18.0324   0.00    0.0    3.66642    8.95817   -0.20691   0.26564  0.30581  0.72743 -0.24221  0.42941 -0.39267
2024/07/20 09:55:32.000   35.161765165  136.883642315    40.7449   5  11   9.5856   5.4328  15.9121  -5.2921   7.5216  -9.5639   0.00    0.0    2.92420    9.10326    0.19875   0.20865  0.14642  0.52661 -0.12090  0.20447 -0.20621
2024/07/20 09:55:33.000   35.161783919  136.883752955    40.2908   5  12   6.2552   4.6807  11.7917  -2.9915  -0.3297  -4.4953   0.00    0.0    3.51139    9.22236    0.18465   0.15596  0.12557  0.43615 -0.07276  0.03760 -0.10058
2024/07/20 09:55:34.000   35.161810504  136.883866087    40.9315   5  10   6.2872   5.5245  11.8035  -2.6642  -1.3054  -4.5331   0.00    0.0    3.43845    9.23020    0.41838   0.18951  0.12807  0.44153 -0.07204  0.05096 -0.06696
2024/07/20 09:55:35.000   35.161837117  136.883968345    40.9065   5  10   7.7275   5.5371  11.8614  -2.9702  -1.5869  -3.1288   0.00    0.0    3.23042    9.29966   -0.04960   0.23044  0.12860  0.45843 -0.04193  0.09385  0.12544
2024/07/20 09:55:36.000   35.161767074  136.884171166    27.1733   5  10  13.3092  18.0482  32.9090 -14.3833 -23.0430  18.7856   0.00    0.0    3.28532    9.29322   -0.03487   0.23213  0.12396  0.48382 -0.06559  0.09277  0.16604
2024/07/20 09:55:37.000   35.161933850  136.884098818    52.2954   5  10  12.1484  10.0399  22.6169  -9.7926 -13.1258  13.1340   0.00    0.0    3.14771    9.43557    0.13785   0.23382  0.12534  0.46939 -0.06010  0.08335  0.14354
2024/07/20 09:55:38.000   35.162457642  136.884052213    38.6053   5  13   4.9843   3.6620   9.9603   1.0561  -1.8116  -4.3046   0.00    0.0    3.19706    9.51050   -0.20122   0.17809  0.09514  0.32298 -0.02790  0.01363 -0.10667
2024/07/20 09:55:39.000   35.162001776  136.884322069    43.9547   5  10  38.8245  28.5570  13.7363 -32.8904  -9.0553   7.4208   0.00    0.0    3.39060    9.38330    0.10119   0.31292  0.13681  0.36796 -0.15053  0.05679 -0.19733
2024/07/20 09:55:40.000   35.161978213  136.884481090    42.3741   5  14   7.0304   5.4680  11.3826  -4.5579   3.6522  -6.4014   0.00    0.0    2.91284    9.47273    0.10675   0.17540  0.11243  0.36035 -0.08450  0.06618 -0.18038
2024/07/20 09:55:41.000   35.162015281  136.884570629    41.8121   5  16   5.3644   2.9158   9.9977  -1.8611   2.3523  -5.7695   0.00    0.0    2.56167    9.46670    0.28351   0.17816  0.09483  0.31333 -0.07830  0.03421 -0.16193
2024/07/20 09:55:42.000   35.162038132  136.884675531    41.3661   5  15   6.7114   3.8572  10.4294  -3.6945   3.6127  -6.7292   0.00    0.0    2.57323    9.59733   -0.19614   0.21855  0.10849  0.31775 -0.11315  0.06304 -0.18150
2024/07/20 09:55:43.000   35.162123431  136.884777607    44.3393   5  17   4.5834   3.1025   9.5127  -1.7950   1.9049  -5.3551   0.00    0.0    1.98758    9.73528   -0.04147   0.15362  0.09547  0.30288 -0.06925  0.03607 -0.15685
2024/07/20 09:55:44.000   35.162076628  136.884888267    40.2050   5  16   5.1801   3.1042   9.5702  -1.7897   1.8926  -5.1352   0.00    0.0    2.50437    9.60535   -0.18325   0.16182  0.09879  0.30077 -0.07586 -0.02367 -0.13229
2024/07/20 09:55:45.000   35.162089485  136.884997922    38.7937   5  13  10.4481   4.3947  12.6411  -5.5233   5.2459 -10.0406   0.00    0.0    1.99940    9.45319   -0.22469   0.27109  0.10908  0.32885 -0.11998  0.06884 -0.21549
2024/07/20 09:55:46.000   35.162084972  136.885105538    40.7105   5  12  12.8969   4.5574  14.8547  -6.2959   6.0778 -12.6414   0.00    0.0    2.42044    9.17716   -0.41794   0.47522  0.13334  0.48799 -0.21055  0.17999 -0.43263
2024/07/20 09:55:47.000   35.162071251  136.885227956    47.2391   5  17   4.8507   2.5229   7.9482  -1.4005   1.6542  -3.7527   0.00    0.0    1.75518    8.81614    0.47689   0.15310  0.08535  0.25341 -0.06528  0.02987 -0.08276
2024/07/20 09:55:48.000   35.162143907  136.885301714    41.1575   5  18   5.3365   2.5246   9.3745  -1.4846   2.3770  -5.4474   0.00    0.0    1.53108    8.88895    0.05149   0.13587  0.08394  0.27725 -0.06087  0.05962 -0.12426
2024/07/20 09:55:49.000   35.162167727  136.885393630    39.3134   5  16   4.5925   3.0652  10.6337  -2.3372   3.8551  -5.2198   0.00    0.0    2.32577    8.49309    0.62964   0.14624  0.10134  0.29083 -0.07733  0.10082 -0.13327
2024/07/20 09:55:50.000   35.162200732  136.885492643    42.9496   5  16   4.6200   3.0634  11.6536  -1.5054   2.8753  -6.3017   0.00    0.0    1.60757    7.66714    1.52180   0.15917  0.10428  0.37707 -0.05051  0.06066 -0.20437
2024/07/20 09:55:51.000   35.163709214  136.886355981  -251.2426   5   8 2072.9947 778.4725 3537.2358 1270.3277 -1659.3653 -2707.8438   0.00    0.0    2.64749    7.89219   -3.73631   0.18348  0.12436  0.39776 -0.05032  0.12445 -0.17173
2024/07/20 09:55:55.000   35.162165502  136.885890742    59.0968   5   9   4.9058  11.2826  13.6588  -1.7974  -5.0626  -4.6096   0.00    0.0   -2.45100   -0.07217    2.17589   0.15549  0.22753  0.42294  0.09398  0.08565 -0.18265
2024/07/20 09:55:57.000   35.162240769  136.885902287    38.3128   5  10  10.1342  24.0786  67.8795 -13.6727  40.1094 -23.5236   0.00    0.0    1.66481    2.85869   -0.55368   0.23532  0.47175  1.18735 -0.27543  0.72359 -0.45862
2024/07/20 09:55:58.000   35.162224586  136.886058542    58.3997   5  14   4.1932   4.2425  11.6472  -1.7687   4.5849  -5.4663   0.00    0.0    1.59786    2.21998    0.87662   0.12491  0.14650  0.37400 -0.05227  0.13959 -0.16593
2024/07/20 09:55:59.000   35.162300118  136.886013106    38.5906   5  19   4.8143   3.0487  11.8332  -1.5049   3.6320  -6.5270   0.00    0.0    1.38936    0.91910   -0.16854   0.15403  0.11267  0.39594 -0.08344  0.13847 -0.21938
2024/07/20 09:56:00.000   35.162310695  136.886027179    39.6038   5  19   4.8130   3.0487  11.8304  -1.5046   3.6319  -6.5247   0.00    0.0    1.27204    0.61724   -0.20176   0.15400  0.11267  0.39588 -0.08343  0.13846 -0.21933
2024/07/20 09:56:01.000   35.162326228  136.886037014    39.7527   5  19   4.4074   3.4926  11.9342  -2.1846   4.6901  -6.1818   0.00    0.0    1.64302    0.50379    0.02360   0.14527  0.12652  0.36422 -0.08976  0.14608 -0.20028
2024/07/20 09:56:02.000   35.162343559  136.886044096    40.4357   5  21   3.6501   2.7381   9.2876   0.3909   2.4976  -4.4645   0.00    0.0    2.82830    0.27522   -0.03736   0.11308  0.09768  0.30103 -0.03779  0.07907 -0.14635
2024/07/20 09:56:03.000   35.162382914  136.886037455    37.2840   5  21   3.3529   2.6652   8.8200   1.0614   2.0780  -3.8242   0.00    0.0    3.78966   -0.28070   -0.02630   0.09582  0.09644  0.30310  0.02156  0.07554 -0.10822
2024/07/20 09:56:04.000   35.162422923  136.886031700    37.4741   5  22   3.3464   2.4084   8.4963   0.9443   1.2727  -3.8868   0.00    0.0    5.04659   -0.88945   -0.07484   0.09577  0.08647  0.27657  0.02430  0.02030 -0.10651
2024/07/20 09:56:05.000   35.162471860  136.886024164    38.0522   5  22   3.2846   2.5845   8.1322   1.5177  -1.2697  -3.6561   0.00    0.0    6.19049   -1.32965    0.11341   0.09381  0.09158  0.26781  0.04867 -0.07471 -0.10004
2024/07/20 09:56:06.000   35.162535238  136.886009791    37.5552   5  22   3.3436   2.8856   8.1665   1.7889  -2.3111  -3.8112   0.00    0.0    7.27685   -1.58538    0.03945   0.09575  0.10401  0.26054  0.05925 -0.09852 -0.11534
2024/07/20 09:56:07.000   35.162571355  136.885957630    46.2064   5  23   2.9720   2.5533   7.4678   1.0682  -0.9472  -3.0760   0.00    0.0    8.07357   -1.98169    0.11232   0.08163  0.08987  0.22225  0.02984 -0.05085 -0.08061
2024/07/20 09:56:08.000   35.162679310  136.885971561    38.6189   5  24   3.1326   2.7917   7.6317   1.6901  -2.4192  -3.4409   0.00    0.0    8.87967   -1.89533    0.13237   0.08626  0.10015  0.23198  0.05667 -0.09887 -0.09255
2024/07/20 09:56:09.000   35.162753829  136.885943531    39.2685   5  26   2.6926   2.2787   6.5627   1.4530  -1.3137  -2.2602   0.00    0.0    9.23390   -1.69969   -0.19322   0.08136  0.08002  0.21667  0.04642 -0.06854 -0.05478
2024/07/20 09:56:10.000   35.162839330  136.885924854    39.2673   5  26   2.7762   2.3931   6.3524   1.6151  -1.2548  -2.2008   0.00    0.0    9.59564   -2.04954    0.03499   0.07929  0.08369  0.20634  0.04874 -0.06575 -0.06514
2024/07/20 09:56:11.000   35.162926264  136.885902532    39.4078   5  26   2.7761   2.3930   6.3523   1.6150  -1.2539  -2.2003   0.00    0.0    9.70246   -2.14286    0.01146   0.07929  0.08369  0.20635  0.04874 -0.06573 -0.06514
2024/07/20 09:56:12.000   35.163013148  136.885878825    39.8192   5  27   2.6377   2.2630   6.1819   1.3911  -0.6585  -1.8906   0.00    0.0    9.81171   -2.07914    0.14207   0.07315  0.07667  0.19368  0.03673 -0.04394 -0.04543
2024/07/20 09:56:13.000   35.163101682  136.885857594    39.4647   5  26   2.6392   2.2701   6.4154   1.3971  -0.3500  -1.8464   0.00    0.0    9.70390   -1.95170    0.15580   0.07751  0.07729  0.20838  0.03997 -0.03436 -0.00967
2024/07/20 09:56:14.000   35.163190221  136.885835545    39.6560   5  29   2.5351   2.1606   5.7753   1.3446  -1.2724  -1.7257   0.00    0.0    9.61522   -1.99521    0.06287   0.07051  0.07283  0.18431  0.03529 -0.05195 -0.03534
2024/07/20 09:56:15.000   35.163278502  136.885814249    39.6414   5  28   2.6548   2.2853   5.9444   1.5476  -1.6328  -2.0214   0.00    0.0    9.61665   -1.93658    0.18230   0.07564  0.07984  0.19498  0.04626 -0.06912 -0.05466
2024/07/20 09:56:16.000   35.163367312  136.885793975    39.0984   5  25   2.7095   2.3799   6.8883   1.4335  -0.6929  -2.3748   0.00    0.0    9.82851   -1.51999    0.36603   0.08177  0.08304  0.24242  0.04265 -0.04044 -0.06106
2024/07/20 09:56:17.000   35.163455836  136.885778931    39.6215   5  26   2.7500   2.3528   6.1336   1.6723  -1.5455  -1.9425   0.00    0.0    9.82129   -1.23130    0.18964   0.08265  0.08280  0.20762  0.05238 -0.06871 -0.03970
2024/07/20 09:56:18.000   35.163541427  136.885761351    39.6419   5  26   2.7225   2.5181   6.1930   1.7245  -1.9362  -2.1487   0.00    0.0    9.83383   -1.29575   -0.19322   0.08293  0.08898  0.21454  0.05571 -0.08908 -0.05820
2024/07/20 09:56:19.000   35.163631175  136.885750847    39.7027   5  25   2.8051   2.5981   6.2099   1.8457  -1.8585  -2.0749   0.00    0.0    9.36360   -1.29218    0.11686   0.08548  0.09309  0.21600  0.06058 -0.08514 -0.05356
2024/07/20 09:56:20.000   35.163714800  136.885735883    39.4517   5  25   2.8049   2.5979   6.2099   1.8455  -1.8580  -2.0743   0.00    0.0    9.18667   -1.48608    0.14208   0.08548  0.09309  0.21602  0.06058 -0.08512 -0.05354
2024/07/20 09:56:21.000   35.163795259  136.885719792    39.2893   5  27   2.6313   2.4460   6.1919   1.5990  -1.9518  -2.1650   0.00    0.0    8.84104   -1.46517   -0.03895   0.07988  0.08617  0.21341  0.05107 -0.08622 -0.05371
2024/07/20 09:56:22.000   35.163873488  136.885704660    39.1578   5  27   2.6312   2.4459   6.1919   1.5989  -1.9514  -2.1645   0.00    0.0    8.30046   -1.27299   -0.27894   0.07988  0.08616  0.21342  0.05107 -0.08621 -0.05370
2024/07/20 09:56:23.000   35.163942007  136.885687975    39.4866   5  28   2.5779   2.1902   6.1170   1.4082  -1.6618  -2.0440   0.00    0.0    7.23595   -1.23769   -0.11131   0.07779  0.07703  0.20484  0.04366 -0.07154 -0.04235
2024/07/20 09:56:24.000   35.164004956  136.885676065    39.1881   5  27   2.6553   2.2861   6.1283   1.5494  -1.5861  -1.9845   0.00    0.0    6.39438   -1.12232    0.02922   0.07945  0.07993  0.20734  0.04744 -0.06657 -0.03571
2024/07/20 09:56:25.000   35.164057591  136.885664091    38.9995   5  28   2.5777   2.1900   6.1169   1.4081  -1.6609  -2.0430   0.00    0.0    5.31816   -0.89819    0.29823   0.07779  0.07702  0.20486  0.04365 -0.07152 -0.04233
2024/07/20 09:56:26.000   35.164100687  136.885656151    39.1861   5  27   2.6308   2.4453   6.1917   1.5985  -1.9498  -2.1627   0.00    0.0    4.30770   -0.65622   -0.12570   0.07989  0.08614  0.21347  0.05105 -0.08618 -0.05367
2024/07/20 09:56:27.000   35.164134193  136.885647739    39.2411   5  27   2.6307   2.4452   6.1917   1.5984  -1.9494  -2.1623   0.00    0.0    3.16932   -0.56232   -0.04661   0.07989  0.08613  0.21348  0.05104 -0.08617 -0.05366
2024/07/20 09:56:28.000   35.164159877  136.885643718    39.2122   5  25   2.7609   2.7992   6.4744   1.9036  -2.4108  -2.3415   0.00    0.0    2.10735   -0.28600    0.05724   0.08372  0.10146  0.22449  0.06234 -0.09893 -0.05940
2024/07/20 09:56:29.000   35.164173259  136.885638319    39.4253   5  25   2.7608   2.7989   6.4745   1.9034  -2.4104  -2.3410   0.00    0.0    1.17136   -0.16590   -0.03474   0.08372  0.10145  0.22452  0.06233 -0.09893 -0.05938
2024/07/20 09:56:30.000   35.164178031  136.885632208    39.2904   5  26   2.6842   2.7162   6.4678   1.7852  -2.4513  -2.3811   0.00    0.0    0.45798   -0.06227   -0.04746   0.08160  0.09763  0.22331  0.05803 -0.10213 -0.06295
2024/07/20 09:56:31.000   35.164182447  136.885637001    39.4787   5  26   2.6840   2.7160   6.4678   1.7850  -2.4510  -2.3807   0.00    0.0   -0.06354    0.01553   -0.03271   0.08160  0.09762  0.22333  0.05803 -0.10212 -0.06295
2024/07/20 09:56:32.000   35.164184546  136.885639835    39.5157   5  26   2.6839   2.7158   6.4679   1.7849  -2.4507  -2.3802   0.00    0.0    0.00998    0.01080   -0.02955   0.08160  0.09762  0.22335  0.05802 -0.10212 -0.06294
2024/07/20 09:56:33.000   35.164184419  136.885639615    39.6486   5  26   2.6838   2.7157   6.4679   1.7847  -2.4504  -2.3798   0.00    0.0   -0.00262    0.00005    0.00325   0.08160  0.09761  0.22337  0.05801 -0.10212 -0.06293
2024/07/20 09:56:34.000   35.164185624  136.885641178    39.6655   5  26   2.6837   2.7155   6.4680   1.7845  -2.4501  -2.3794   0.00    0.0   -0.00791   -0.00107   -0.00879   0.08160  0.09761  0.22338  0.05801 -0.10211 -0.06292
2024/07/20 09:56:35.000   35.164186253  136.885643145    39.8256   5  26   2.6835   2.7153   6.4680   1.7844  -2.4498  -2.3789   0.00    0.0    0.00721    0.00189    0.02067   0.08160  0.09760  0.22340  0.05800 -0.10211 -0.06291
2024/07/20 09:56:36.000   35.164186692  136.885644224    39.8925   5  26   2.6834   2.7151   6.4681   1.7842  -2.4495  -2.3785   0.00    0.0    0.00513   -0.00136    0.01081   0.08160  0.09760  0.22342  0.05800 -0.10211 -0.06291
2024/07/20 09:56:37.000   35.164187041  136.885645448    39.8596   5  26   2.6833   2.7149   6.4681   1.7840  -2.4492  -2.3780   0.00    0.0   -0.00153    0.00657   -0.00436   0.08160  0.09759  0.22344  0.05799 -0.10210 -0.06290
2024/07/20 09:56:38.000   35.164188059  136.885645423    39.8775   5  26   2.6831   2.7147   6.4682   1.7839  -2.4489  -2.3776   0.00    0.0   -0.00074    0.00526    0.00119   0.08160  0.09759  0.22346  0.05798 -0.10210 -0.06289
2024/07/20 09:56:39.000   35.164187794  136.885645537    39.8581   5  26   2.6830   2.7145   6.4683   1.7837  -2.4486  -2.3772   0.00    0.0   -0.00229   -0.00746   -0.02272   0.08160  0.09758  0.22347  0.05798 -0.10210 -0.06288
2024/07/20 09:56:40.000   35.164187320  136.885644703    39.7892   5  26   2.6829   2.7143   6.4683   1.7835  -2.4483  -2.3767   0.00    0.0   -0.00293    0.01115    0.00192   0.08160  0.09758  0.22349  0.05797 -0.10209 -0.06288
2024/07/20 09:56:41.000   35.164186140  136.885643733    40.0819   5  26   2.6827   2.7141   6.4684   1.7834  -2.4480  -2.3763   0.00    0.0    0.00604    0.00936   -0.03173   0.08160  0.09757  0.22351  0.05796 -0.10209 -0.06287
2024/07/20 09:56:42.000   35.164185689  136.885642457    40.2171   5  26   2.6826   2.7139   6.4684   1.7832  -2.4477  -2.3759   0.00    0.0    0.00864    0.00070    0.00990   0.08160  0.09756  0.22353  0.05796 -0.10209 -0.06286
2024/07/20 09:56:43.000   35.164185155  136.885641928    40.0521   5  26   2.6825   2.7138   6.4685   1.7830  -2.4474  -2.3754   0.00    0.0    0.00509    0.00770   -0.00393   0.08160  0.09756  0.22354  0.05795 -0.10208 -0.06285
2024/07/20 09:56:44.000   35.164185171  136.885641341    39.8939   5  26   2.6823   2.7136   6.4685   1.7829  -2.4472  -2.3750   0.00    0.0    0.00396    0.00475    0.01083   0.08160  0.09755  0.22356  0.05794 -0.10208 -0.06284
2024/07/20 09:56:45.000   35.164184933  136.885640822    39.8782   5  26   2.6822   2.7134   6.4686   1.7827  -2.4469  -2.3745   0.00    0.0    0.01115    0.00453   -0.02602   0.08160  0.09755  0.22358  0.05794 -0.10208 -0.06284
2024/07/20 09:56:46.000   35.164184910  136.885640862    39.9160   5  26   2.6821   2.7132   6.4686   1.7825  -2.4466  -2.3741   0.00    0.0    0.00461    0.01799    0.01084   0.08160  0.09754  0.22360  0.05793 -0.10208 -0.06283
2024/07/20 09:56:47.000   35.164185151  136.885641825    39.9425   5  26   2.6819   2.7130   6.4687   1.7824  -2.4463  -2.3737   0.00    0.0    0.00637    0.00662    0.00200   0.08160  0.09754  0.22361  0.05792 -0.10207 -0.06282
2024/07/20 09:56:48.000   35.164185370  136.885643113    40.0129   5  26   2.6818   2.7128   6.4687   1.7822  -2.4460  -2.3732   0.00    0.0    0.00625    0.00154   -0.02281   0.08160  0.09753  0.22363  0.05792 -0.10207 -0.06281
2024/07/20 09:56:49.000   35.164185743  136.885644774    40.1379   5  26   2.6817   2.7126   6.4688   1.7820  -2.4457  -2.3728   0.00    0.0    0.00475   -0.00818   -0.02820   0.08160  0.09753  0.22365  0.05791 -0.10207 -0.06281
2024/07/20 09:56:50.000   35.164186520  136.885645968    40.2040   5  26   2.6815   2.7124   6.4688   1.7819  -2.4454  -2.3723   0.00    0.0   -0.00012   -0.00403    0.01244   0.08160  0.09752  0.22367  0.05791 -0.10206 -0.06280
2024/07/20 09:56:51.000   35.164187688  136.885647784    40.4003   5  26   2.6814   2.7122   6.4689   1.7817  -2.4451  -2.3719   0.00    0.0   -0.00344   -0.00895    0.01512   0.08160  0.09752  0.22368  0.05790 -0.10206 -0.06279
2024/07/20 09:56:52.000   35.164189903  136.885649734    40.3880   5  26   2.6813   2.7121   6.4690   1.7815  -2.4448  -2.3715   0.00    0.0   -0.00354   -0.00068   -0.00185   0.08160  0.09751  0.22370  0.05789 -0.10206 -0.06278
2024/07/20 09:56:53.000   35.164191871  136.885651875    40.4002   5  26   2.6811   2.7119   6.4690   1.7814  -2.4445  -2.3710   0.00    0.0   -0.00594   -0.00297    0.00707   0.08160  0.09750  0.22372  0.05789 -0.10205 -0.06277
2024/07/20 09:56:54.000   35.164183533  136.885641443    39.9583   5  25   2.7572   2.7936   6.4769   1.8987  -2.4002  -2.3271   0.00    0.0    0.00400    0.00231   -0.00594   0.08372  0.10128  0.22506  0.06216 -0.09872 -0.05901
2024/07/20 09:56:55.000   35.164183893  136.885641486    39.9377   5  25   2.7570   2.7934   6.4769   1.8985  -2.3997  -2.3265   0.00    0.0   -0.01013   -0.00084    0.00621   0.08372  0.10127  0.22508  0.06215 -0.09871 -0.05900
2024/07/20 09:56:56.000   35.164183800  136.885641380    40.1167   5  25   2.7569   2.7932   6.4770   1.8983  -2.3993  -2.3259   0.00    0.0    0.00326    0.00519   -0.02608   0.08372  0.10126  0.22510  0.06215 -0.09871 -0.05898
2024/07/20 09:56:57.000   35.164183366  136.885641368    40.1441   5  25   2.7568   2.7930   6.4771   1.8981  -2.3989  -2.3254   0.00    0.0    0.01933    0.01648   -0.02740   0.08372  0.10126  0.22513  0.06214 -0.09870 -0.05897
2024/07/20 09:56:58.000   35.164182836  136.885642038    40.3439   5  25   2.7566   2.7928   6.4772   1.8979  -2.3985  -2.3248   0.00    0.0    0.00052    0.01170    0.00633   0.08372  0.10125  0.22515  0.06213 -0.09869 -0.05895
2024/07/20 09:56:59.000   35.164183032  136.885642842    40.3409   5  25   2.7565   2.7926   6.4773   1.8977  -2.3981  -2.3243   0.00    0.0    0.00933    0.01278   -0.01990   0.08372  0.10124  0.22517  0.06213 -0.09868 -0.05894
2024/07/20 09:57:00.000   35.164182792  136.885642564    40.5007   5  25   2.7563   2.7923   6.4774   1.8976  -2.3977  -2.3237   0.00    0.0    0.00763    0.00819   -0.00616   0.08372  0.10123  0.22519  0.06212 -0.09867 -0.05892
2024/07/20 09:57:01.000   35.164182973  136.885642513    40.3528   5  25   2.7562   2.7921   6.4775   1.8974  -2.3973  -2.3231   0.00    0.0    0.02047    0.00471   -0.03711   0.08372  0.10123  0.22521  0.06211 -0.09866 -0.05891
2024/07/20 09:57:02.000   35.164183698  136.885642693    40.0643   5  25   2.7560   2.7919   6.4776   1.8972  -2.3969  -2.3226   0.00    0.0   -0.00482   -0.00856   -0.00863   0.08372  0.10122  0.22523  0.06211 -0.09866 -0.05889
2024/07/20 09:57:03.000   35.164184290  136.885643764    39.9879   5  25   2.7559   2.7917   6.4777   1.8970  -2.3964  -2.3220   0.00    0.0    0.00671    0.00402   -0.02434   0.08372  0.10121  0.22526  0.06210 -0.09865 -0.05888
2024/07/20 09:57:04.000   35.164183962  136.885644785    39.9337   5  25   2.7557   2.7915   6.4778   1.8968  -2.3960  -2.3214   0.00    0.0    0.00651   -0.00669    0.01296   0.08372  0.10121  0.22528  0.06209 -0.09864 -0.05886
2024/07/20 09:57:05.000   35.164218261  136.885686461    41.6492   5  26   2.6796   2.7096   6.4696   1.7794  -2.4409  -2.3657   0.00    0.0    0.32764   -0.06328   -0.00460   0.08160  0.09744  0.22393  0.05781 -0.10201 -0.06268
2024/07/20 09:57:06.000   35.164194247  136.885643252    39.4772   5  25   2.7555   2.7911   6.4780   1.8964  -2.3952  -2.3203   0.00    0.0    1.68354   -0.31620   -0.00224   0.08372  0.10119  0.22532  0.06208 -0.09862 -0.05883
2024/07/20 09:57:07.000   35.164218170  136.885638433    39.0256   5  25   2.7553   2.7909   6.4781   1.8962  -2.3948  -2.3198   0.00    0.0    3.36930   -0.65686    0.05151   0.08372  0.10119  0.22534  0.06207 -0.09861 -0.05882
2024/07/20 09:57:08.000   35.164254897  136.885632811    39.4450   5  24   2.7758   2.7999   6.7222   1.8757  -2.3078  -2.4463   0.00    0.0    4.78375   -0.69258    0.31542   0.08485  0.10160  0.23908  0.06104 -0.09482 -0.06752
2024/07/20 09:57:09.000   35.164305680  136.885625031    39.2102   5  24   2.8032   3.2299   6.7836   2.1061  -3.0007  -2.5332   0.00    0.0    6.16719   -0.49069    0.02670   0.08391  0.10905  0.22964  0.06386 -0.10729 -0.06084
2024/07/20 09:57:10.000   35.164365774  136.885617843    39.4170   5  24   2.8030   3.2295   6.7838   2.1058  -3.0003  -2.5326   0.00    0.0    7.19041   -0.69667   -0.01800   0.08391  0.10904  0.22966  0.06385 -0.10729 -0.06082
